{
  "22840c10": {
    "location_name": "Espacio de Igualdad Lucrecia Pérez. Fuencarral-El Pardo",
    "address": "CALLE MANRESA 1",
    "district": "Fuencarral-ElPardo",
    "latitude": 40.49120609425076,
    "longitude": -3.6916379633219116
  },
  "a298608a": {
    "location_name": "Centros de Mayores del distrito Centro"
  },
  "e240598f": {
    "location_name": "Centros de mayores de Vicálvaro"
  },
  "040b80fc": {
    "location_name": "Espacio de Igualdad Nieves Torres. Chamartín",
    "address": "CALLE ENRIQUE JARDIEL PONCELA 8",
    "district": "Chamartin",
    "latitude": 40.46088981165102,
    "longitude": -3.6700689174427326
  },
  "12aed782": {
    "location_name": "Centro de Cultura Contemporánea Conde Duque",
    "address": "CALLE CONDE DUQUE 9",
    "district": "Centro",
    "latitude": 40.42739911262292,
    "longitude": -3.710589286287491
  },
  "02e88678": {
    "location_name": "Centro de Educación Ambiental El Retiro",
    "address": "PASEO FERNAN NUÑEZ 2",
    "district": "Retiro",
    "latitude": 40.40943503279114,
    "longitude": -3.6861797800993257
  },
  "0b80dbd8": {
    "location_name": "Planetario de Madrid",
    "address": "AVENIDA PLANETARIO 16",
    "district": "Arganzuela",
    "latitude": 40.392279999540044,
    "longitude": -3.684956957448299
  },
  "63e95416": {
    "location_name": "Parque Cerro del Tío Pío",
    "address": "CALLE BENJAMIN PALENCIA 2",
    "district": "PuenteDeVallecas",
    "latitude": 40.39701982315709,
    "longitude": -3.655239797848888
  },
  "1a7c6818": {
    "location_name": "Centro de Información y Educación Ambiental de Dehesa de la Villa",
    "address": "C/ Francos Rodríguez frente al Instituto Virgen de la Paloma, 28039 Madrid",
    "district": "Moncloa-Aravaca",
    "latitude": 40.45914104116349,
    "longitude": -3.718270563679269
  },
  "c2271205": {
    "location_name": "Espacio de Igualdad Emilia Pardo Bazán. Ciudad Lineal",
    "address": "AVENIDA BADAJOZ 60",
    "district": "CiudadLineal",
    "latitude": 40.442311100791215,
    "longitude": -3.6534806246311913
  },
  "7fb097ff": {
    "location_name": "Espacio de Igualdad María Telo. Moratalaz",
    "address": "CALLE CAMINO DE LOS VINATEROS 51",
    "district": "Moratalaz",
    "latitude": 40.41087442118042,
    "longitude": -3.6538891267077664
  },
  "9c620465": {
    "location_name": "Espacio de Igualdad Juana Doña. Arganzuela",
    "address": "PASEO CHOPERA 10",
    "district": "Arganzuela",
    "latitude": 40.39307289237465,
    "longitude": -3.699005654074825
  },
  "314b42da": {
    "location_name": "Espacio de Igualdad María de Maeztu. Latina",
    "address": "CALLE MARCELINO CASTILLO 29",
    "district": "Latina",
    "latitude": 40.39420907754556,
    "longitude": -3.744687315765447
  },
  "5b0073c9": {
    "location_name": "Biblioteca Pública Municipal Iván de Vargas (Centro)",
    "address": "CALLE SAN JUSTO 5",
    "district": "Centro",
    "latitude": 40.41410290844665,
    "longitude": -3.7098591212735883
  },
  "deac1f3f": {
    "location_name": "Plaza de Santiago",
    "address": "Plaza de Santiago, Madrid"
  },
  "95a62894": {
    "location_name": "Cineteca Madrid",
    "address": "PLAZA LEGAZPI 8",
    "district": "Arganzuela",
    "latitude": 40.39130985242181,
    "longitude": -3.6958028442054074
  },
  "4608eac2": {
    "location_name": "CEIP Madrid Sur y CEIP Fray Junípero Serra"
  },
  "76d6f7b2": {
    "location_name": "Centro Sociocultural Miguel de Cervantes (San Blas - Canillejas)",
    "address": "CALLE ALIAGA 5",
    "district": "SanBlas-Canillejas",
    "latitude": 40.4366557020283,
    "longitude": -3.6113517282299217
  },
  "bb29009c": {
    "location_name": "CentroCentro",
    "address": "PLAZA CIBELES 1",
    "district": "Retiro",
    "latitude": 40.41902261618159,
    "longitude": -3.692188193693138
  },
  "378ab55a": {
    "location_name": "Parque Forestal de Valdemingómez"
  },
  "021b7d66": {
    "location_name": "Parque Tecnológico de Valdemingómez"
  },
  "397872e8": {
    "location_name": "Centros Deportivos Municipales (CDM)"
  },
  "69c139db": {
    "location_name": "Auditorio Canal de Panamá (Ciudad Lineal)",
    "address": "CALLE PADRE COLOMA 2",
    "district": "CiudadLineal",
    "latitude": 40.44071019620189,
    "longitude": -3.652412289521502
  },
  "ab545dfb": {
    "location_name": "Centro Cultural Alfredo Kraus (Fuencarral - El Pardo)",
    "address": "GLORIETA PRADERA DE VAQUERIZAS 9",
    "district": "Fuencarral-ElPardo",
    "latitude": 40.49082275610172,
    "longitude": -3.7216054330053647
  },
  "80116606": {
    "location_name": "Biblioteca Pública Municipal Gabriel García Márquez (Usera)",
    "address": "PLAZA PUEBLO 2",
    "district": "Usera",
    "latitude": 40.366768324753416,
    "longitude": -3.701141063083806
  },
  "f6706f88": {
    "location_name": "Teatro Municipal de Vallecas",
    "address": "CALLE PASO DE VILLAMANRIQUE 3",
    "district": "VillaDeVallecas",
    "latitude": 40.37762362093048,
    "longitude": -3.6229095774784765
  },
  "523428da": {
    "location_name": "Centro Cultural San Juan Bautista (Ciudad Lineal)",
    "address": "CALLE SAN NEMESIO 4",
    "district": "CiudadLineal",
    "latitude": 40.45224710166,
    "longitude": -3.658029027767765
  },
  "439b2cee": {
    "location_name": "Biblioteca Pública Municipal José Saramago (Fuencarral-El Pardo)",
    "address": "AVENIDA MONFORTE DE LEMOS 38",
    "district": "Fuencarral-ElPardo",
    "latitude": 40.47860087334554,
    "longitude": -3.7094408342979954
  },
  "212de84d": {
    "location_name": "Espacio de Igualdad Elena Arnedo Soriano. Retiro",
    "address": "CALLE ARREGUI Y ARUEJ 31",
    "district": "Retiro",
    "latitude": 40.40254931370529,
    "longitude": -3.668092320219012
  },
  "f754924c": {
    "location_name": "Biblioteca Pública Municipal Manuel Vázquez Montalbán (Tetuán)",
    "address": "CALLE FRANCOS RODRIGUEZ 67",
    "district": "Tetuan",
    "latitude": 40.45749513485957,
    "longitude": -3.710539712535917
  },
  "b1a47d14": {
    "location_name": "Centro Sociocultural Francisco Fatou (Villa de Vallecas)",
    "address": "CALLE MANUEL VELEZ 10",
    "district": "VillaDeVallecas",
    "latitude": 40.37959032098656,
    "longitude": -3.62310875744905
  },
  "e232e586": {
    "location_name": "Espacio de Igualdad María Zambrano. Chamberí",
    "address": "CALLE ANDRES MELLADO 44",
    "district": "Chamberi",
    "latitude": 40.433958260960964,
    "longitude": -3.7143358486689415
  },
  "b0b9722e": {
    "location_name": "Espacio de Igualdad Hermanas Mirabal. Tetuán",
    "address": "CALLE BRAVO MURILLO 133",
    "district": "Tetuan",
    "latitude": 40.45012255255781,
    "longitude": -3.7037047897267947
  },
  "038c1e87": {
    "location_name": "Espacios públicos y parques de Madrid"
  },
  "b1f7c00c": {
    "location_name": "Teatro Español",
    "address": "CALLE PRINCIPE 25",
    "district": "Centro",
    "latitude": 40.414828532240946,
    "longitude": -3.700164949543688
  },
  "40c9bbca": {
    "location_name": "Centro Cultural el Torito (Moratalaz)",
    "address": "AVENIDA MORATALAZ 130",
    "district": "Moratalaz",
    "latitude": 40.40610655994401,
    "longitude": -3.646521482592748
  },
  "3182d5e2": {
    "location_name": "Centro Sociocultural Eduardo Chillida (Moratalaz)",
    "address": "CALLE ARROYO BELINCOSO 9",
    "district": "Moratalaz",
    "latitude": 40.40934483353835,
    "longitude": -3.653036718771371
  },
  "977bf320": {
    "location_name": "Centro Intergeneracional Ouka Leele",
    "address": "Calle Bronce, 16, 28045 Madrid"
  },
  "05a2048c": {
    "location_name": "Centro Cultural Benjamín Palencia (Villa de Vallecas)",
    "address": "AVENIDA LA GAVIA 55",
    "district": "VillaDeVallecas",
    "latitude": 40.36691109856854,
    "longitude": -3.6164419466246676
  },
  "31352bed": {
    "location_name": "Imprenta Municipal. Artes del libro",
    "address": "CALLE CONCEPCION JERONIMA 15",
    "district": "Centro",
    "latitude": 40.413896825498995,
    "longitude": -3.7054692169323364
  },
  "9b3eae76": {
    "location_name": "Espacio de Igualdad Dulce Chacón. Villaverde",
    "address": "CALLE TORDEGRILLOS 32",
    "district": "Villaverde",
    "latitude": 40.344107374451525,
    "longitude": -3.7166081132911537
  },
  "1a630411": {
    "location_name": "Espacio de Igualdad Lourdes Hernández. Carabanchel",
    "address": "CALLE COMANDANTE FONTANES 8",
    "district": "Carabanchel",
    "latitude": 40.395326406887946,
    "longitude": -3.721622686264932
  },
  "882d6cd0": {
    "location_name": "Instalación Deportiva Municipal Básica Cerro Blanco",
    "address": "CALLE ALBARDIN 7",
    "district": "Usera",
    "latitude": 40.37976723848226,
    "longitude": -3.7162665062702196
  },
  "76473c96": {
    "location_name": "Parque Forestal de Valdebernardo",
    "address": "Av. de la Democracia, 25, 28031 Madrid"
  },
  "bc288b4d": {
    "location_name": "Salas de exposiciones Conde Duque",
    "address": "CALLE CONDE DUQUE 9",
    "district": "Centro",
    "latitude": 40.425879483969005,
    "longitude": -3.7116123357920823
  },
  "f14ce3db": {
    "location_name": "Espacio de Igualdad Carme Chacón. Hortaleza",
    "address": "CALLE MATAPOZUELOS 2",
    "district": "Hortaleza",
    "latitude": 40.46155641637237,
    "longitude": -3.6501714580414126
  },
  "1b4b08af": {
    "location_name": "Espacio de Igualdad Clara Campoamor. Villaverde",
    "address": "CALLE MARIA MARTINEZ OVIOL 12",
    "district": "Villaverde",
    "latitude": 40.35087114162283,
    "longitude": -3.691508909255186
  },
  "c5495751": {
    "location_name": "Legazpi"
  },
  "3b218d26": {
    "location_name": "La fábrica de muebles",
    "address": "Camino Nuevo a Casa Eulogio, sn, Cañada Real, Madrid"
  },
  "2f68c2a1": {
    "location_name": "Centro Deportivo Municipal Palomeras",
    "address": "Calle Tranvia de Arganda, 4"
  },
  "d40f267f": {
    "location_name": "Matadero Medialab",
    "address": "PASEO CHOPERA 14",
    "district": "Arganzuela",
    "latitude": 40.39245798191536,
    "longitude": -3.6972067902718897
  },
  "0017d0ac": {
    "location_name": "Centro Deportivo Municipal San Cristóbal",
    "address": "PLAZA PINAZO 9",
    "district": "Villaverde",
    "latitude": 40.34267317099495,
    "longitude": -3.6914487380508842
  },
  "398d56b6": {
    "location_name": "Centro Intergeneracional Río Esmeralda",
    "address": "CALLE RIO ESMERALDA 15",
    "district": "PuenteDeVallecas",
    "latitude": 40.382903228859135,
    "longitude": -3.6520658390631127
  },
  "c9c45e0d": {
    "location_name": "Fernán Gómez Centro Cultural de la Villa",
    "address": "PLAZA COLON 4",
    "district": "Salamanca",
    "latitude": 40.4249721516942,
    "longitude": -3.689948085098791
  },
  "de38613f": {
    "location_name": "Centro Sociocultural Rafael de León (Fuencarral - El Pardo)",
    "address": "CALLE ISLA DE ONS 14",
    "district": "Fuencarral-ElPardo",
    "latitude": 40.48025613358832,
    "longitude": -3.7214686777952974
  },
  "aed4d982": {
    "location_name": "Centro Sociocultural Ágata (Villaverde)",
    "address": "CALLE DOCTOR MARTIN AREVALO 2",
    "district": "Villaverde",
    "latitude": 40.346369432374594,
    "longitude": -3.7085146991266473
  },
  "af116271": {
    "location_name": "Quinta de la Fuente del Berro",
    "address": "CALLE ENRIQUE D'ALMONTE 1",
    "district": "Salamanca",
    "latitude": 40.42299730556785,
    "longitude": -3.6625213630031794
  },
  "38e0e792": {
    "location_name": "Casa del Lector (Matadero)",
    "address": "de la Chopera, 14",
    "latitude": 40.3923033,
    "longitude": -3.69743
  },
  "6ba590e1": {
    "location_name": "Espacio de Igualdad Gloria Fuertes. Vicálvaro",
    "address": "AVENIDA REAL 14",
    "district": "Vicalvaro",
    "latitude": 40.40274516135535,
    "longitude": -3.6072257008596313
  },
  "f07e42d3": {
    "location_name": "Centro Cultural Zazuar (Villa de Vallecas)",
    "address": "CALLE ZAZUAR 4",
    "district": "VillaDeVallecas",
    "latitude": 40.38281866921273,
    "longitude": -3.6061377076487906
  },
  "73b313ed": {
    "location_name": "Jardines de El Buen Retiro",
    "address": "PLAZA INDEPENDENCIA 7",
    "district": "Retiro",
    "latitude": 40.41964087412762,
    "longitude": -3.68793370943788
  },
  "7e673f1f": {
    "location_name": "Parque Emperatriz María de Austria",
    "address": "CALLE VIA LUSITANA 3",
    "district": "Carabanchel",
    "latitude": 40.382311100280766,
    "longitude": -3.7227552919050586
  },
  "53979c9c": {
    "location_name": "Parque Enrique Tierno Galván",
    "address": "CALLE MENESES 4",
    "district": "Arganzuela",
    "latitude": 40.39210151448589,
    "longitude": -3.681620654746187
  },
  "22a0d9bd": {
    "location_name": "Jardines del Campo del Moro",
    "address": "PASEO VIRGEN DEL PUERTO 1",
    "district": "Centro",
    "latitude": 40.41884303920882,
    "longitude": -3.719998772058356
  },
  "d73fe77e": {
    "location_name": "Instalación Deportiva Municipal Básica Alameda de Osuna II",
    "address": "PASEO ALAMEDA DE OSUNA 26",
    "district": "Barajas",
    "latitude": 40.45425391757006,
    "longitude": -3.600336224968592
  },
  "58c0410c": {
    "location_name": "Centro Cultural Antonio Machado (San Blas - Canillejas)",
    "address": "CALLE SAN ROMAN DEL VALLE 8",
    "district": "SanBlas-Canillejas",
    "latitude": 40.420280457570335,
    "longitude": -3.621730741880216
  },
  "68bf7b77": {
    "location_name": "Centro Sociocultural Maestro Alonso (Salamanca)",
    "address": "CALLE MAESTRO ALONSO 6",
    "district": "Salamanca",
    "latitude": 40.4293927571053,
    "longitude": -3.664846244443566
  },
  "13acb8c9": {
    "location_name": "Centro Cultural Casa de Vacas (Retiro)",
    "address": "PASEO COLOMBIA 1",
    "district": "Retiro",
    "latitude": 40.41906571939961,
    "longitude": -3.684053112760816
  },
  "f37c6e85": {
    "location_name": "Teatro Municipal de Títeres. Parque de El Retiro",
    "address": "AVENIDA MÉXICO 4",
    "district": "Retiro",
    "latitude": 40.41878362561595,
    "longitude": -3.6866519471003647
  },
  "32296fa0": {
    "location_name": "Espacio de Igualdad María Moliner. Villa de Vallecas",
    "address": "CALLE HONRUBIA 4",
    "district": "VillaDeVallecas",
    "latitude": 40.37128211425518,
    "longitude": -3.6292460351699867
  },
  "d8052c1c": {
    "location_name": "Centro Cultural José Luis Sampedro (Latina)",
    "address": "CALLE CASTROSERNA 4",
    "district": "Latina",
    "latitude": 40.40159394334669,
    "longitude": -3.749110841406562
  },
  "88e623b8": {
    "location_name": "Espacio Cultural Serrería Belga",
    "address": "CALLE ALAMEDA 15",
    "district": "Centro",
    "latitude": 40.4105673503608,
    "longitude": -3.6937819843413373
  },
  "c2579d97": {
    "location_name": "Centro Cultural Miguel Hernández (Latina)",
    "address": "CALLE SERRADILLA 13",
    "district": "Latina",
    "latitude": 40.378853797128336,
    "longitude": -3.7819616113032115
  },
  "a0c50125": {
    "location_name": "Centro Cultural Fernando de los Ríos (Latina)",
    "address": "CALLE CAMARENA 10",
    "district": "Latina",
    "latitude": 40.39552931214334,
    "longitude": -3.7562667464373223
  },
  "5e1a70e3": {
    "location_name": "Centro Cultural Sara Montiel (Latina)",
    "address": "CARRETERA BOADILLA DEL MONTE 40",
    "district": "Latina",
    "latitude": 40.399764677637116,
    "longitude": -3.775144917950534
  },
  "a9658da7": {
    "location_name": "Centro Sociocultural Almirante Churruca (Latina)",
    "address": "CALLE FUENTE DEL TIRO 72",
    "district": "Latina",
    "latitude": 40.3829835905706,
    "longitude": -3.7800890564106613
  },
  "96aed5d1": {
    "location_name": "Centro Sociocultural El Greco (Latina)",
    "address": "CALLE EL GRECO 29",
    "district": "Latina",
    "latitude": 40.407316328180464,
    "longitude": -3.747465416906973
  },
  "eb5a720a": {
    "location_name": "Centro Sociocultural Rosario de Acuña (Latina)",
    "address": "CALLE MARIA DEL CARMEN 65",
    "district": "Latina",
    "latitude": 40.40647389284976,
    "longitude": -3.7327010920242043
  },
  "08cc2680": {
    "location_name": "Centro Sociocultural Alfonso XII (Fuencarral - El Pardo)",
    "address": "CALLE MIRA EL RIO 4",
    "district": "Fuencarral-ElPardo",
    "latitude": 40.519673311658686,
    "longitude": -3.7779055687726535
  },
  "09e2acfe": {
    "location_name": "Biblioteca Pública Municipal Ciudad Lineal (Ciudad Lineal)",
    "address": "CALLE HERMANOS GARCIA NOBLEJAS 14",
    "district": "CiudadLineal",
    "latitude": 40.43644651057092,
    "longitude": -3.6372924261150033
  },
  "aac81ce4": {
    "location_name": "Centro Sociocultural Valverde (Fuencarral - El Pardo)",
    "address": "PLAZA ISLAS AZORES 1",
    "district": "Fuencarral-ElPardo",
    "latitude": 40.49504564211655,
    "longitude": -3.6880070256093758
  },
  "5989b7b0": {
    "location_name": "Museo ABC",
    "address": "de Amaniel, 29",
    "latitude": 40.4281043,
    "longitude": -3.7097008
  },
  "f2b4174f": {
    "location_name": "Instalación Deportiva Municipal Básica Parque El Calero",
    "address": "CALLE VIRGEN DE NURIA 4",
    "district": "CiudadLineal",
    "latitude": 40.43580006579458,
    "longitude": -3.6532953172963816
  },
  "2a930101": {
    "location_name": "Espacio de Igualdad Ana Orantes. Barajas",
    "address": "CALLE PLAYA DE SAN JUAN 6",
    "district": "Barajas",
    "latitude": 40.473659104975354,
    "longitude": -3.592395079190456
  },
  "f799769f": {
    "location_name": "Centro Cultural Eduardo Úrculo (Tetuán)",
    "address": "PLAZA DONOSO 5",
    "district": "Tetuan",
    "latitude": 40.46900764611639,
    "longitude": -3.697595691925329
  },
  "9068c482": {
    "location_name": "Centro Deportivo Municipal Plata y Castañar",
    "address": "PASEO PLATA Y CASTAÑAR 7",
    "district": "Villaverde",
    "latitude": 40.34998997348078,
    "longitude": -3.7178413073202856
  },
  "868d318d": {
    "location_name": "Parque de Berlín",
    "address": "AVENIDA RAMON Y CAJAL 2",
    "district": "Chamartin",
    "latitude": 40.45150372849227,
    "longitude": -3.6760645355093797
  },
  "9a81a5d0": {
    "location_name": "Parque de la Vaguada",
    "address": "PASEO VAGUADA 13",
    "district": "Fuencarral-ElPardo",
    "latitude": 40.48016602497203,
    "longitude": -3.7112978051427574
  },
  "f616b9eb": {
    "location_name": "Instalación Deportiva Municipal Básica Los Rosales I",
    "address": "AVENIDA LOS ROSALES 131",
    "district": "Villaverde",
    "latitude": 40.35175390495651,
    "longitude": -3.677834634453844
  },
  "bae04585": {
    "location_name": "Parque Juan Carlos I",
    "address": "GLORIETA S.A.R. DON JUAN DE BORBON Y BATTEMBERG, 5 5",
    "district": "Barajas",
    "latitude": 40.45999848510341,
    "longitude": -3.6148888706303586
  },
  "1fc654e8": {
    "location_name": "Planta de transformación de residuos vegetales de Migas Calientes",
    "address": "AUTOVIA M-30 2200",
    "district": "Moncloa-Aravaca",
    "latitude": 40.445355536117184,
    "longitude": -3.7399742609916697
  },
  "5435f959": {
    "location_name": "Centro Sociocultural Santa Petronila (Villaverde)",
    "address": "CALLE MARIA MARTINEZ OVIOL 12",
    "district": "Villaverde",
    "latitude": 40.350886994103284,
    "longitude": -3.6914981254409645
  },
  "02b25093": {
    "location_name": "Centro de Información y Educación Ambiental de Casa de Campo",
    "address": "PARQUE CASA DE CAMPO (JUNTO AL EMBARCADERO DEL LAGO)",
    "district": "Moncloa-Aravaca",
    "latitude": 40.41789950036311,
    "longitude": -3.7309390858931137
  },
  "63c0a6a0": {
    "location_name": "Centro Sociocultural Teresa de Calcuta (Barajas)",
    "address": "PLAZA NAVIO 4",
    "district": "Barajas",
    "latitude": 40.455320740232835,
    "longitude": -3.5876301858469386
  },
  "3f386eb8": {
    "location_name": "Biblioteca Pública Municipal Gloria Fuertes (Barajas)",
    "address": "AVENIDA LOGROÑO 179",
    "district": "Barajas",
    "latitude": 40.46055947228695,
    "longitude": -3.5937461811785347
  },
  "dae5bf11": {
    "location_name": "Parque Quinta de los Molinos",
    "address": "CALLE ALCALA 527",
    "district": "SanBlas-Canillejas",
    "latitude": 40.44245748722783,
    "longitude": -3.6217095632137375
  },
  "4710abd1": {
    "location_name": "Centro Cultural Galileo (Chamberí)",
    "address": "CALLE GALILEO 39",
    "district": "Chamberi",
    "latitude": 40.433719454283505,
    "longitude": -3.7104468992841753
  },
  "0402c527": {
    "location_name": "Aula ambiental La Cabaña del Retiro",
    "address": "PASEO FERNAN NUÑEZ 10",
    "district": "Retiro",
    "latitude": 40.40912277790706,
    "longitude": -3.6793179644920584
  },
  "5e4b8cb1": {
    "location_name": "Centro Sociocultural Juvenil de Moratalaz",
    "address": "CALLE FUENTE CARRANTONA 10",
    "district": "Moratalaz",
    "latitude": 40.39928542551079,
    "longitude": -3.636600379403484
  },
  "06d8226f": {
    "location_name": "Biblioteca Pública Municipal La Chata (Carabanchel)",
    "address": "CALLE GENERAL RICARDOS 252",
    "district": "Carabanchel",
    "latitude": 40.38330593504341,
    "longitude": -3.7420633861175796
  },
  "e2457581": {
    "location_name": "Biblioteca Musical Víctor Espinós",
    "address": "CALLE CONDE DUQUE 9",
    "district": "Centro",
    "latitude": 40.42737760210632,
    "longitude": -3.7106116887809817
  },
  "28cc7d13": {
    "location_name": "Biblioteca Pública Municipal Francisco Umbral (Villaverde)",
    "address": "CALLE CALCIO 1",
    "district": "Villaverde",
    "latitude": 40.35118703272002,
    "longitude": -3.679345889376551
  },
  "1d11f16a": {
    "location_name": "Biblioteca Pública Municipal María Lejárraga (Hortaleza)",
    "address": "CALLE PRINCESA DE EBOLI 29",
    "district": "Hortaleza",
    "latitude": 40.49041562546542,
    "longitude": -3.655356751728003
  },
  "97507349": {
    "location_name": "Biblioteca Pública Municipal Mario Vargas Llosa (Centro)",
    "address": "CALLE BARCELO 4",
    "district": "Centro",
    "latitude": 40.426642215368176,
    "longitude": -3.699722994908341
  },
  "77a9d10a": {
    "location_name": "Biblioteca Pública Municipal San Blas (San Blas-Canillejas)",
    "address": "CALLE SAN ROMAN DEL VALLE 8",
    "district": "SanBlas-Canillejas",
    "latitude": 40.420231627534996,
    "longitude": -3.6218113860909074
  },
  "18ec62a3": {
    "location_name": "Centro Deportivo Municipal Casa de Campo",
    "address": "PASEO PUERTA DEL ANGEL 7",
    "district": "Moncloa-Aravaca",
    "latitude": 40.41612628789201,
    "longitude": -3.733536573641621
  },
  "cf38b0cd": {
    "location_name": "Nave 10 Matadero (antes Naves del Español)",
    "address": "de la Chopera, 14",
    "latitude": 40.391820782642,
    "longitude": -3.697409033775
  },
  "9335e955": {
    "location_name": "Centro de Educación Ambiental y Cultural Maris Stella (Usera)",
    "address": "CALLE DOCTOR TOLOSA LATOUR 16",
    "district": "Usera",
    "latitude": 40.374166248648216,
    "longitude": -3.7032220308808577
  },
  "3fa55718": {
    "location_name": "Biblioteca Pública Municipal Ana María Matute (Carabanchel)",
    "address": "CALLE ISAAC ALBENIZ 1",
    "district": "Carabanchel",
    "latitude": 40.39786734087938,
    "longitude": -3.720088245008897
  },
  "12355570": {
    "location_name": "Biblioteca Pública Municipal Eugenio Trías. Casa de Fieras de El Retiro (Retiro)",
    "address": "PASEO FERNÁN NÚÑEZ 24",
    "district": "Retiro",
    "latitude": 40.4166091081099,
    "longitude": -3.6795930368034804
  },
  "57f49789": {
    "location_name": "Biblioteca Pública Municipal José Hierro (San Blas-Canillejas)",
    "address": "CALLE MARIA SEVILLA DIAGO 15",
    "district": "SanBlas-Canillejas",
    "latitude": 40.433291625973624,
    "longitude": -3.6105662311927453
  },
  "1c1352bf": {
    "location_name": "Biblioteca Pública Municipal David Gistau (Salamanca)",
    "address": "AVENIDA TOREROS 5",
    "district": "Salamanca",
    "latitude": 40.43199309720514,
    "longitude": -3.670929243543714
  },
  "f3bebf71": {
    "location_name": "Biblioteca Pública Municipal María Zambrano (Tetuán)",
    "address": "PLAZA DONOSO 5",
    "district": "Tetuan",
    "latitude": 40.46903299144094,
    "longitude": -3.6976620067964996
  },
  "02a50fe5": {
    "location_name": "Colegio Público República de Venezuela",
    "address": "CALLE CERECINOS 8",
    "district": "Usera",
    "latitude": 40.38358402272625,
    "longitude": -3.713626711959121
  },
  "70f1779a": {
    "location_name": "Biblioteca Pública Municipal Portazgo (Puente de Vallecas)",
    "address": "CALLE CANTALAPIEDRA 11",
    "district": "PuenteDeVallecas",
    "latitude": 40.393189968014696,
    "longitude": -3.6554147649183943
  },
  "f91fa53f": {
    "location_name": "Centro Cultural Buero Vallejo (San Blas - Canillejas)",
    "address": "CALLE BOLTAÑA 27",
    "district": "SanBlas-Canillejas",
    "latitude": 40.44477474902185,
    "longitude": -3.6129105844633775
  },
  "b8894eca": {
    "location_name": "Colegio Público Plácido Domingo",
    "address": "CALLE TEJO 5",
    "district": "Arganzuela",
    "latitude": 40.39744510759389,
    "longitude": -3.678351566632272
  },
  "4ec30898": {
    "location_name": "Centro Cultural Las Californias (Retiro)",
    "address": "CALLE LUIS PEIDRO 2",
    "district": "Retiro",
    "latitude": 40.397021560779024,
    "longitude": -3.6738766514153163
  },
  "a08b657f": {
    "location_name": "Colegio Público Arquitecto Gaudí",
    "address": "CALLE ROSA JARDON 10",
    "district": "Chamartin",
    "latitude": 40.46541828100197,
    "longitude": -3.669067772820547
  },
  "e411800a": {
    "location_name": "Teatro Circo Price",
    "address": "RONDA ATOCHA 35",
    "district": "Arganzuela",
    "latitude": 40.40596936645757,
    "longitude": -3.698589986849812
  },
  "c8b2fc5c": {
    "location_name": "Biblioteca Pública Municipal Vallecas (Puente de Vallecas)",
    "address": "CALLE PUERTO DEL MONASTERIO 1",
    "district": "PuenteDeVallecas",
    "latitude": 40.395023959810636,
    "longitude": -3.665554302127492
  },
  "ff4b611f": {
    "location_name": "Centro Sociocultural Tetuán",
    "address": "CALLE BRAVO MURILLO 251",
    "district": "Tetuan",
    "latitude": 40.45907909580629,
    "longitude": -3.7002532146213043
  },
  "a172fa00": {
    "location_name": "Centro Sociocultural Montecarmelo (Fuencarral - El Pardo)",
    "address": "Carretera M-607 Km 13 L-10",
    "district": "Fuencarral-ElPardo",
    "latitude": 40.515712291624084,
    "longitude": -3.6860532895354448
  },
  "a3d5cce9": {
    "location_name": "Centro Sociocultural Bohemios (Villaverde)",
    "address": "CALLE LOS BOHEMIOS 1",
    "district": "Villaverde",
    "latitude": 40.35639654251886,
    "longitude": -3.6940501846610894
  },
  "3166d913": {
    "location_name": "Silo de Hortaleza",
    "address": "CALLE MAR DE LAS ANTILLAS 8",
    "district": "Hortaleza",
    "latitude": 40.47484735634347,
    "longitude": -3.645543866498554
  },
  "a15e3fff": {
    "location_name": "Centro Cultural Hortaleza",
    "address": "CALLE SANTA VIRGILIA 15",
    "district": "Hortaleza",
    "latitude": 40.47682410775741,
    "longitude": -3.6420497457238
  },
  "61a0fba7": {
    "location_name": "Centro Cultural Carril del Conde (Hortaleza)",
    "address": "CALLE CARRIL DEL CONDE 57",
    "district": "Hortaleza",
    "latitude": 40.46089499555313,
    "longitude": -3.654366821391548
  },
  "297b23a2": {
    "location_name": "Espacio de Igualdad Lucía Sánchez Saornil. San Blas-Canillejas",
    "address": "PLAZA EURIPIDES 1",
    "district": "SanBlas-Canillejas",
    "latitude": 40.449003967549075,
    "longitude": -3.6069161377213526
  },
  "b422257b": {
    "location_name": "Parque Anunciación",
    "address": "CALLE ANUNCIACION 1",
    "district": "Retiro",
    "latitude": 40.41192841997151,
    "longitude": -3.67583331713166
  },
  "a2273ec8": {
    "location_name": "Parque Roma",
    "address": "CALLE JUAN ESPLANDIU 4",
    "district": "Retiro",
    "latitude": 40.41641041087398,
    "longitude": -3.662606100328213
  },
  "32d8e991": {
    "location_name": "Centro Deportivo Municipal José María Cagigal",
    "address": "CALLE SANTA POLA 22",
    "district": "Moncloa-Aravaca",
    "latitude": 40.43214955342785,
    "longitude": -3.7369645992831364
  },
  "303984c9": {
    "location_name": "Museo de Historia de Madrid",
    "address": "CALLE FUENCARRAL 78",
    "district": "Centro",
    "latitude": 40.42577054821346,
    "longitude": -3.700845660719608
  },
  "33ffad55": {
    "location_name": "Mercado municipal de Usera",
    "address": "CALLE AMPARO USERA 46",
    "district": "Usera",
    "latitude": 40.38709779232295,
    "longitude": -3.706253056063665
  },
  "06e5ef28": {
    "location_name": "Junta Municipal del Distrito de Usera",
    "address": "AVENIDA RAFAELA YBARRA 41",
    "district": "Usera",
    "latitude": 40.3823867401053,
    "longitude": -3.710861696949648
  },
  "b2aea691": {
    "location_name": "Biblioteca Pública Municipal Ángel González (Latina)",
    "address": "CALLE GRANJA DE TORREHERMOSA 1",
    "district": "Latina",
    "latitude": 40.397074625115906,
    "longitude": -3.7664885474841556
  },
  "5ec0d445": {
    "location_name": "Biblioteca Pública Municipal Francisco Ayala (Vicálvaro)",
    "address": "BULEVAR INDALECIO PRIETO 21",
    "district": "Vicalvaro",
    "latitude": 40.39982891410407,
    "longitude": -3.621281890570377
  },
  "95641ab4": {
    "location_name": "Biblioteca Pública Municipal Canillejas (San Blas-Canillejas)",
    "address": "CALLE BOLTAÑA 23",
    "district": "SanBlas-Canillejas",
    "latitude": 40.44640229188281,
    "longitude": -3.6117933204271098
  },
  "2f1901fb": {
    "location_name": "Colegio Público Ciudad de Zaragoza",
    "address": "CALLE MANUEL AGUILAR MUÑOZ 1",
    "district": "Barajas",
    "latitude": 40.460302151327085,
    "longitude": -3.5912198696737083
  },
  "5920ebfe": {
    "location_name": "Auditorio Municipal Las Trece Rosas",
    "address": "CALLE MONTE DE MONTJUICH 7",
    "district": "VillaDeVallecas",
    "latitude": 40.38024953878224,
    "longitude": -3.6175290483217055
  },
  "77b83e41": {
    "location_name": "Parque Santa Eugenia",
    "address": "CALLE Puentelarra 13",
    "district": "VillaDeVallecas",
    "latitude": 40.38131130575197,
    "longitude": -3.608459149580722
  },
  "7b2029f7": {
    "location_name": "Centro Cultural Nicolás Salmerón (Chamartín)",
    "address": "CALLE MANTUANO 51",
    "district": "Chamartin",
    "latitude": 40.44834125150792,
    "longitude": -3.6761992414203526
  },
  "a471d651": {
    "location_name": "Biblioteca Pública Municipal Vicálvaro",
    "address": "CALLE VILLARDONDIEGO 36",
    "district": "Vicalvaro",
    "latitude": 40.405283650744316,
    "longitude": -3.6086278232922804
  },
  "127a1864": {
    "location_name": "Centro Cultural La Vaguada (Fuencarral - El Pardo)",
    "address": "AVENIDA MONFORTE DE LEMOS 38",
    "district": "Fuencarral-ElPardo",
    "latitude": 40.47900813206291,
    "longitude": -3.709138377702435
  },
  "3f3d092d": {
    "location_name": "Madrid Caja Mágica",
    "address": "CAMINO PERALES 23",
    "district": "Usera",
    "latitude": 40.3690829380518,
    "longitude": -3.6852444414433685
  },
  "a7eb6f63": {
    "location_name": "Biblioteca Pública Municipal San Fermín (Usera)",
    "address": "AVENIDA SAN FERMIN 10",
    "district": "Usera",
    "latitude": 40.3711623444796,
    "longitude": -3.692742821990015
  },
  "ca84f24f": {
    "location_name": "Biblioteca Pública Municipal Pablo Neruda (Ciudad Lineal)",
    "address": "CALLE ASCAO 4",
    "district": "CiudadLineal",
    "latitude": 40.42941133441142,
    "longitude": -3.6416899839787695
  },
  "5d9b273f": {
    "location_name": "Centro Deportivo Municipal Daoíz y Velarde 1",
    "address": "PLAZA DAOÍZ Y VELARDE 5",
    "district": "Retiro",
    "latitude": 40.40236990974131,
    "longitude": -3.6772808932293217
  },
  "65a790aa": {
    "location_name": "Espacio de Igualdad Berta Cáceres. Usera",
    "address": "CALLE GRAN AVENIDA 14",
    "district": "Usera",
    "latitude": 40.36902428128397,
    "longitude": -3.710212677306876
  },
  "395f476b": {
    "location_name": "Centro Dotacional Integrado Arganzuela Ángel del Río",
    "address": "CALLE CANARIAS 17",
    "district": "Arganzuela",
    "latitude": 40.40242416544921,
    "longitude": -3.6954440062549017
  },
  "2280f84e": {
    "location_name": "Centro Cultural Puerta de Toledo (Centro)",
    "address": "AVENIDA GRAN VIA DE SAN FRANCISCO 2",
    "district": "Centro",
    "latitude": 40.40741060830642,
    "longitude": -3.7119168856897677
  },
  "d75ccb20": {
    "location_name": "Colegio Público Pío XII",
    "address": "CALLE DELFIN 2",
    "district": "Tetuan",
    "latitude": 40.46693859499291,
    "longitude": -3.693889291907082
  },
  "a77bed0e": {
    "location_name": "Centro Cultural Príncipe de Asturias (Ciudad Lineal)",
    "address": "CALLE HERMANOS GARCIA NOBLEJAS 14",
    "district": "CiudadLineal",
    "latitude": 40.43644651057092,
    "longitude": -3.6372924261150033
  },
  "7c1958bc": {
    "location_name": "Edificio Sociocultural Marta Escudero Díaz-Tejeiro (Villaverde)",
    "address": "CALLE CALCIO 1",
    "district": "Villaverde",
    "latitude": 40.35118703272002,
    "longitude": -3.679345889376551
  },
  "25253f08": {
    "location_name": "Centro Cultural Lavapiés (Centro)",
    "address": "CALLE OLIVAR 46",
    "district": "Centro",
    "latitude": 40.40967898937472,
    "longitude": -3.7015569791252063
  },
  "cf403d6c": {
    "location_name": "Centro Sociocultural Marconi (Villaverde)",
    "address": "ACCESO COLONIA MARCONI 4",
    "district": "Villaverde",
    "latitude": 40.3347558542528,
    "longitude": -3.7008037217338274
  },
  "9f9324a7": {
    "location_name": "Auditorio Carmen Laforet (Ciudad Lineal)",
    "address": "CALLE JAZMIN 46",
    "district": "CiudadLineal",
    "latitude": 40.47967249471556,
    "longitude": -3.6657243894913565
  },
  "fef6f71f": {
    "location_name": "Jardín del Bulevar de Peña Gorbea",
    "address": "CALLE PEÑA GORBEA 17",
    "district": "PuenteDeVallecas",
    "latitude": 40.3957812018463,
    "longitude": -3.6670346724676173
  },
  "6d0e53b1": {
    "location_name": "Centro Cultural Lope de Vega (Puente de Vallecas)",
    "address": "CALLE CONCEJO DE TEVERGA 1",
    "district": "PuenteDeVallecas",
    "latitude": 40.386296991431074,
    "longitude": -3.671858416387963
  },
  "fdc5567c": {
    "location_name": "Centro Sociocultural Alberto Sánchez (Puente de Vallecas)",
    "address": "CALLE RISCO DE PELOCHE 14",
    "district": "PuenteDeVallecas",
    "latitude": 40.393619022093546,
    "longitude": -3.6556016835101834
  },
  "c3355e2c": {
    "location_name": "Centro Cultural Buenavista (Salamanca)",
    "address": "AVENIDA TOREROS 5",
    "district": "Salamanca",
    "latitude": 40.43200001609297,
    "longitude": -3.670904677285496
  },
  "665f7b8a": {
    "location_name": "Centro Cultural Juan Genovés (Moncloa - Aravaca)",
    "address": "TRAVESIA CA&amp;Ntilde;O 5",
    "district": "Moncloa-Aravaca",
    "latitude": 40.45867841791346,
    "longitude": -3.7863499043313373
  },
  "79c2f491": {
    "location_name": "Auditorio Joaquín Rosado (Moncloa-Aravaca)",
    "address": "CALLE SANTA POLA 22",
    "district": "Moncloa-Aravaca",
    "latitude": 40.432243310641894,
    "longitude": -3.7366613378902462
  },
  "9e9db1a1": {
    "location_name": "Centro Sociocultural Valle Inclán (Fuencarral - El Pardo)",
    "address": "CALLE ARZOBISPO MORCILLO 7",
    "district": "Fuencarral-ElPardo",
    "latitude": 40.48106787416528,
    "longitude": -3.6933504628706095
  },
  "bc9e186b": {
    "location_name": "Centro Cultural Emilia Pardo Bazán (Salamanca)",
    "address": "CALLE GOYA 1",
    "district": "Salamanca",
    "latitude": 40.42585800515975,
    "longitude": -3.689601594290468
  },
  "c4d94593": {
    "location_name": "Centro Cultural Ciudad Pegaso (San Blas - Canillejas)",
    "address": "AVENIDA SEPTIMA 11",
    "district": "SanBlas-Canillejas",
    "latitude": 40.44844757572015,
    "longitude": -3.598099871155595
  },
  "402a0176": {
    "location_name": "Centro Cultural Julio Cortázar (Moncloa - Aravaca)",
    "address": "CALLE ANTONIO MACHADO 20",
    "district": "Moncloa-Aravaca",
    "latitude": 40.46678417843686,
    "longitude": -3.7195598670929315
  },
  "ebf96d4f": {
    "location_name": "Centro Cultural Quinta del Berro - Rafael Altamira (Salamanca)",
    "address": "CALLE ENRIQUE D'ALMONTE 1",
    "district": "Salamanca",
    "latitude": 40.42206923419431,
    "longitude": -3.6629608041639368
  },
  "13dc04c6": {
    "location_name": "Centro Cultural Usera 1",
    "address": "AVENIDA RAFAELA YBARRA 49",
    "district": "Usera",
    "latitude": 40.381114597104194,
    "longitude": -3.711149675992656
  },
  "9dd9d421": {
    "location_name": "Centro Sociocultural Cánovas del Castillo (Usera)",
    "address": "CALLE JULIO AGUIRRE 10",
    "district": "Usera",
    "latitude": 40.38627312379031,
    "longitude": -3.700074755609488
  },
  "0418b21d": {
    "location_name": "Centro Cultural Casa del Reloj (Arganzuela)",
    "address": "PASEO CHOPERA 6",
    "district": "Arganzuela",
    "latitude": 40.39466755008527,
    "longitude": -3.700396761468562
  },
  "b32cd0eb": {
    "location_name": "Centro Cultural José Luis López Vázquez (San Blas - Canillejas)",
    "address": "CALLE FEBRERO 4",
    "district": "SanBlas-Canillejas",
    "latitude": 40.446826729909155,
    "longitude": -3.5727382893523254
  },
  "3262edc1": {
    "location_name": "Centro Cultural - Centro Socio Cultural Villa de Barajas",
    "address": "CALLE BOTICA 7",
    "district": "Barajas",
    "latitude": 40.47324881250678,
    "longitude": -3.5784908616003723
  },
  "9c07c98c": {
    "location_name": "Espacio Cultural Núñez de Balboa, 40 (Salamanca)",
    "address": "CALLE NUÑEZ DE BALBOA 40",
    "district": "Salamanca",
    "latitude": 40.426826159507435,
    "longitude": -3.6825349481985135
  },
  "eddef19e": {
    "location_name": "Jardines de la Plaza de Oriente, Lepanto y Cabo Noval",
    "address": "CALLE BAILEN 17",
    "district": "Centro",
    "latitude": 40.41835486065351,
    "longitude": -3.712838830603048
  },
  "956860a1": {
    "location_name": "Templete de la Música. Parque del Oeste",
    "address": "CALLE PROFESOR MARTIN ALMAGRO BASCH 5",
    "district": "Moncloa-Aravaca",
    "latitude": 40.42344341691355,
    "longitude": -3.7159940054784806
  },
  "d0bca656": {
    "location_name": "Plaza Lugar Poetas (Moncloa-Aravaca)",
    "district": "Distrito",
    "latitude": 40.46644791330993,
    "longitude": -3.7190034169332566
  },
  "dbe08552": {
    "location_name": "Centro Cultural Auditorio Parque El Paraíso (San Blas - Canillejas)",
    "address": "AVENIDA ARCENTALES 4",
    "district": "SanBlas-Canillejas",
    "latitude": 40.42997621103139,
    "longitude": -3.6221773579444596
  },
  "0f73d594": {
    "location_name": "Centro Cultural Valdebernardo (Vicálvaro)",
    "address": "BULEVAR INDALECIO PRIETO 21",
    "district": "Vicalvaro",
    "latitude": 40.399832138328044,
    "longitude": -3.6212720265227873
  },
  "a8d99540": {
    "location_name": "Espacio de lectura Parque del Oeste  (Moncloa-Aravaca)",
    "address": "CALLE PROFESOR MARTIN ALMAGRO BASCH 0",
    "district": "Moncloa-Aravaca",
    "latitude": 40.42559,
    "longitude": -3.71955
  },
  "acc32168": {
    "location_name": "Biblioteca Pública Municipal Dámaso Alonso (Chamartín)",
    "address": "CALLE MANUEL FERRERO 1",
    "district": "Chamartin",
    "latitude": 40.467453379213175,
    "longitude": -3.6846112774442705
  },
  "7d1896a5": {
    "location_name": "Jardines de la Plaza de Chamberí",
    "address": "PLAZA CHAMBERI 1",
    "district": "Chamberi",
    "latitude": 40.43285328749453,
    "longitude": -3.697594475998512
  },
  "4efb2e45": {
    "location_name": "Centro Cultural Sanchinarro (Hortaleza)",
    "address": "CALLE PRINCESA DE EBOLI 29",
    "district": "Hortaleza",
    "latitude": 40.49042200599307,
    "longitude": -3.6553467891079854
  },
  "b470f69d": {
    "location_name": "Centro Cultural Federico Chueca (Hortaleza)",
    "address": "CALLE BENITA AVILA 23",
    "district": "Hortaleza",
    "latitude": 40.465513265035874,
    "longitude": -3.650585652034587
  },
  "c7a556cc": {
    "location_name": "Centro Deportivo Municipal Cea Bermúdez",
    "address": "CALLE CEA BERMUDEZ 3",
    "district": "Chamberi",
    "latitude": 40.43857964605446,
    "longitude": -3.706107413184514
  },
  "7f9397e2": {
    "location_name": "Centro Deportivo Municipal Orcasitas",
    "address": "AVENIDA RAFAELA YBARRA 52",
    "district": "Usera",
    "latitude": 40.37558213858424,
    "longitude": -3.71245854352948
  },
  "17475429": {
    "location_name": "Colegio Público República de Brasil",
    "address": "AVENIDA FUEROS 34",
    "district": "Usera",
    "latitude": 40.37043939785913,
    "longitude": -3.6899302716018574
  },
  "9e757641": {
    "location_name": "Centro Sociocultural Aula de Aire Libre (Puente de Vallecas)",
    "address": "CALLE SIERRA CARBONERA 74",
    "district": "PuenteDeVallecas",
    "latitude": 40.39010138870244,
    "longitude": -3.6653235716960015
  },
  "7f7d0281": {
    "location_name": "Centro Deportivo Municipal Estadio de Atletismo Vallehermoso (Dirección General de Deporte)",
    "address": "CALLE MELQUIADES ALVAREZ 10",
    "district": "Chamberi",
    "latitude": 40.441913031255396,
    "longitude": -3.710700237505622
  },
  "5651c399": {
    "location_name": "Centro Sociocultural José de Espronceda (Tetuán)",
    "address": "CALLE ALMANSA 9",
    "district": "Tetuan",
    "latitude": 40.44864332758775,
    "longitude": -3.704513191828797
  },
  "579d1092": {
    "location_name": "Parroquia Nuestra Señora de la Merced",
    "address": "CALLE CORREGIDOR JUAN FRANCISCO DE LUJAN 101",
    "district": "Moratalaz",
    "latitude": 40.40184226882266,
    "longitude": -3.6453645857841925
  },
  "c3b95563": {
    "location_name": "Parroquia Nuestra Señora de los Apóstoles",
    "address": "CALLE LUIS DE HOYOS SAINZ 94",
    "district": "Moratalaz",
    "latitude": 40.40311144962074,
    "longitude": -3.6372300119528695
  },
  "8bc8072f": {
    "location_name": "Centro Deportivo Municipal Barajas",
    "address": "AVENIDA LOGROÑO 70",
    "district": "Barajas",
    "latitude": 40.46301382809657,
    "longitude": -3.587693324074623
  },
  "ccc906e4": {
    "location_name": "Auditorio y sala de exposiciones Paco de Lucía (Latina)",
    "address": "AVENIDA LAS AGUILAS 2",
    "district": "Latina",
    "latitude": 40.38493929920335,
    "longitude": -3.7641963952601154
  },
  "aa25e685": {
    "location_name": "Centro Cultural Fuente de San Pedro - Valderrivas (Vicálvaro)",
    "address": "CALLE TITANIO 5",
    "district": "Vicalvaro",
    "latitude": 40.40218085880392,
    "longitude": -3.60141148450391
  },
  "06f7981c": {
    "location_name": "Centro Sociocultural García Lorca (Carabanchel)",
    "address": "CALLE EUGENIA DE MONTIJO 105",
    "district": "Carabanchel",
    "latitude": 40.374208184505,
    "longitude": -3.7510283910283873
  },
  "6284509f": {
    "location_name": "Parque de Pradolongo",
    "address": "AVENIDA RAFAELA YBARRA 85",
    "district": "Usera",
    "latitude": 40.37557617692429,
    "longitude": -3.711963730232908
  },
  "3c67bbc4": {
    "location_name": "Centro Cultural San Francisco La Prensa (Carabanchel)",
    "address": "CALLE ALISEDA 4",
    "district": "Carabanchel",
    "latitude": 40.37691447788016,
    "longitude": -3.7416256113806847
  },
  "9c4ab070": {
    "location_name": "Centro Cultural el Madroño (Vicálvaro)",
    "address": "CALLE VILLARDONDIEGO 36",
    "district": "Vicalvaro",
    "latitude": 40.40529229274289,
    "longitude": -3.6086152959929514
  },
  "df0f2429": {
    "location_name": "Auditorio al aire libre. Pilar García Peña (Parque Pinar del Rey)",
    "address": "CARRETERA CANILLAS 1",
    "district": "Hortaleza",
    "latitude": 40.46333523949564,
    "longitude": -3.657291981994152
  },
  "02d08997": {
    "location_name": "Escuela Municipal de Música Joaquín Turina (Ciudad Lineal)",
    "address": "CALLE DALIA 4",
    "district": "CiudadLineal",
    "latitude": 40.47948371546377,
    "longitude": -3.6666068980576436
  },
  "74b38acb": {
    "location_name": "Centro de Ocio y Asesoramiento Juvenil Pipo Velasco (Usera)",
    "address": "CALLE AVENA 5",
    "district": "Usera",
    "latitude": 40.37738097077752,
    "longitude": -3.715659887802671
  },
  "6159d396": {
    "location_name": "Auditorio al aire libre. Parque Amós Acero",
    "address": "CALLE SIERRA DE ALQUIFE 20",
    "district": "PuenteDeVallecas",
    "latitude": 40.38840925271774,
    "longitude": -3.666129894495819
  },
  "4bb15957": {
    "location_name": "Centro Sociocultural Blasco Ibáñez (Carabanchel)",
    "address": "CALLE SOLDADO JOSE MARIA REY 44",
    "district": "Carabanchel",
    "latitude": 40.39496102590205,
    "longitude": -3.7327634025142253
  },
  "db6fe3f2": {
    "location_name": "Centro Cultural Fernando Lázaro Carreter (Carabanchel)",
    "address": "CALLE VERDAD 29",
    "district": "Carabanchel",
    "latitude": 40.39164455403764,
    "longitude": -3.717137582860074
  },
  "4417d2f9": {
    "location_name": "Centro Sociocultural Oporto (Carabanchel)",
    "address": "AVENIDA OPORTO 78",
    "district": "Carabanchel",
    "latitude": 40.38682740756541,
    "longitude": -3.7277493066262406
  },
  "a7513d9e": {
    "location_name": "Centro de Servicios Sociales San Diego",
    "address": "CALLE JAVIER DE MIGUEL 10",
    "district": "PuenteDeVallecas",
    "latitude": 40.38871930363662,
    "longitude": -3.663689575700872
  },
  "7e7b6ac7": {
    "location_name": "Auditorio al aire libre. Parque Cerro Almodóvar",
    "address": "CALLE MARCELINO CASTILLO 29",
    "district": "Latina",
    "latitude": 40.39420802732146,
    "longitude": -3.744692836307442
  },
  "83d70b16": {
    "location_name": "Parque de Villa Rosa-Paco Caño",
    "address": "CALLE ACONCAGUA 2",
    "district": "Hortaleza",
    "latitude": 40.468674190501815,
    "longitude": -3.631588640594873
  },
  "8d90c6ff": {
    "location_name": "Centro Cultural Clara del Rey - Museo ABC (Centro)",
    "address": "CALLE AMANIEL 29",
    "district": "Centro",
    "latitude": 40.42741340671151,
    "longitude": -3.7095381101739444
  },
  "6dd5948c": {
    "location_name": "Parque Huerta de la Salud",
    "address": "CALLE MAR DE LAS ANTILLAS 8",
    "district": "Hortaleza"
  },
  "ffd56673": {
    "location_name": "Parque de la Casa de Campo",
    "address": "PASEO PUERTA DEL ANGEL 1",
    "district": "Moncloa-Aravaca",
    "latitude": 40.41472407139105,
    "longitude": -3.7301857404819767
  },
  "598fa082": {
    "location_name": "Parque de los Llanos",
    "address": "CALLE DIONISIO INCA YUPANQUI 8",
    "district": "Hortaleza",
    "latitude": 40.461621132349094,
    "longitude": -3.6281020785174873
  },
  "4975b7d7": {
    "location_name": "Parque Alfredo Kraus",
    "address": "CALLE MAR ADRIATICO 5",
    "district": "Hortaleza",
    "latitude": 40.47098300036034,
    "longitude": -3.6393251567222045
  },
  "e46a2db9": {
    "location_name": "Centro Cultural Orcasur (Usera)",
    "address": "PLAZA PUEBLO 2",
    "district": "Usera",
    "latitude": 40.366772166148415,
    "longitude": -3.70113521931168
  },
  "33f7f327": {
    "location_name": "Instalación Deportiva Municipal Básica Colonia Marconi",
    "address": "CALLE PRINCIPAL 1",
    "district": "Villaverde",
    "latitude": 40.33378974534553,
    "longitude": -3.698026716448742
  },
  "be0f5543": {
    "location_name": "Templete del Parque del Retiro",
    "address": "PLAZA MAESTRO VILLA 1",
    "district": "Retiro",
    "latitude": 40.41941736281525,
    "longitude": -3.6850082736557983
  },
  "fa6055d1": {
    "location_name": "Instalación Deportiva Municipal Básica San Juan Bautista - El Flori",
    "address": "CALLE AGASTIA 87",
    "district": "CiudadLineal",
    "latitude": 40.45128969601845,
    "longitude": -3.655860624786257
  },
  "66b28638": {
    "location_name": "Centro Deportivo Municipal San Juan Bautista",
    "address": "CALLE TREVIANA 1",
    "district": "CiudadLineal",
    "latitude": 40.44864976316054,
    "longitude": -3.6585711797466836
  },
  "a730b91d": {
    "location_name": "Instalación Deportiva Municipal Básica Parque Salvador Madariaga",
    "address": "CALLE SALVADOR DE MADARIAGA 9",
    "district": "CiudadLineal",
    "latitude": 40.43939860438441,
    "longitude": -3.6571307210648647
  },
  "b4d499b0": {
    "location_name": "Centro Cultural Daoíz y Velarde",
    "address": "de Daoíz y Velarde, 4",
    "latitude": 40.4015359,
    "longitude": -3.6773107
  },
  "622c74d4": {
    "location_name": "Fundación Canal Sala Castellana 214",
    "address": "de la Castellana, 214",
    "latitude": 40.463602,
    "longitude": -3.688925
  },
  "79932781": {
    "location_name": "Filmoteca Española",
    "address": "de la Magdalena, 10",
    "latitude": 40.412287059178,
    "longitude": -3.702210187912
  },
  "1e352ee3": {
    "location_name": "COAM",
    "address": "de Hortaleza, 63",
    "latitude": 40.4240359,
    "longitude": -3.698986
  },
  "47e9c7c5": {
    "location_name": "Museo Casa de La Moneda",
    "address": "del Doctor Esquerdo, 36",
    "latitude": 40.4226001,
    "longitude": -3.6691398
  },
  "31e63917": {
    "location_name": "La Casa Encendida",
    "address": "de Valencia, 2",
    "latitude": 40.4060622,
    "longitude": -3.6999668
  },
  "ea3477e5": {
    "location_name": "Palacio de Cristal",
    "address": "de República de Cuba, 4",
    "latitude": 40.4136275,
    "longitude": -3.6820393
  },
  "6b08727e": {
    "location_name": "Nuevo Teatro Alcalá",
    "address": "de Jorge Juan, 62",
    "latitude": 40.423395884533,
    "longitude": -3.678274154663
  },
  "e28cdcb5": {
    "location_name": "Teatro Apolo",
    "address": "de Tirso de Molina, 1",
    "latitude": 40.4123371,
    "longitude": -3.7033164
  },
  "c7782429": {
    "location_name": "Museo Nacional de Antropología",
    "address": "de Alfonso XII, 68",
    "latitude": 40.4077713,
    "longitude": -3.6890236
  },
  "879fc20a": {
    "location_name": "Teatro Maravillas",
    "address": "de Manuela Malasaña, 6",
    "latitude": 40.428729102562,
    "longitude": -3.703240156174
  },
  "df925a11": {
    "location_name": "Museo Arqueológico Nacional",
    "address": "de Serrano, 13",
    "latitude": 40.4234939,
    "longitude": -3.6889607
  },
  "a39f00f6": {
    "location_name": "Palacio de Liria",
    "address": "de la Princesa, 20",
    "latitude": 40.427732729479,
    "longitude": -3.712424039841
  },
  "8fbe5662": {
    "location_name": "Centro de Arte Dos de Mayo (CA2M) / Móstoles",
    "address": "de la Constitución , 23",
    "latitude": 40.324707,
    "longitude": -3.863246
  },
  "fc2a84be": {
    "location_name": "Teatro Fígaro",
    "address": "del Doctor Cortezo, 5",
    "latitude": 40.413466,
    "longitude": -3.7036766
  },
  "e2c2b499": {
    "location_name": "Hipódromo de la Zarzuela",
    "address": "Padre Huidobro , s/n",
    "latitude": 40.467976085526,
    "longitude": -3.7562084198
  },
  "0e7756d3": {
    "location_name": "Museo del Ferrocarril",
    "address": "de las Delicias, 61",
    "latitude": 40.398749783694,
    "longitude": -3.691465258598
  },
  "bebd45c9": {
    "location_name": "Museo Nacional de Ciencias Naturales",
    "address": "de José Gutierrez Abascal, 2",
    "latitude": 40.4416762,
    "longitude": -3.6901373
  },
  "d2e1acfd": {
    "location_name": "Gran Teatro Pavón",
    "address": "de Embajadores, 9",
    "latitude": 40.4099859,
    "longitude": -3.7061463
  },
  "7fb49dd2": {
    "location_name": "Pequeño Teatro Gran Vía",
    "address": "Gran Vía, 66",
    "latitude": 40.422430061313,
    "longitude": -3.708958625794
  },
  "305c5b59": {
    "location_name": "Escuela Superior de Ingenieros de Minas",
    "address": "Rios Rosas, 21",
    "latitude": 40.4420396,
    "longitude": -3.7005144
  },
  "ba4d6e71": {
    "location_name": "Arlequín Gran Vía Teatro",
    "address": "de San Bernardo , 5",
    "latitude": 40.4211742662,
    "longitude": -3.70820492506
  },
  "d5e60251": {
    "location_name": "Teatro Alcázar",
    "address": "de Alcalá, 20",
    "latitude": 40.4177853,
    "longitude": -3.6990893
  },
  "20f77603": {
    "location_name": "Museo Nacional Thyssen-Bornemisza",
    "address": "del Prado, 8",
    "latitude": 40.4160406,
    "longitude": -3.6949254
  },
  "1c88f612": {
    "location_name": "Teatro Ocaso Coliseum",
    "address": "Gran Vía, 78",
    "latitude": 40.42353,
    "longitude": -3.7096604
  },
  "529045ed": {
    "location_name": "Teatro Lara",
    "address": "Baja de San Pablo, 15",
    "latitude": 40.4220989,
    "longitude": -3.7044511
  },
  "f23f45f9": {
    "location_name": "Teatro Muñoz Seca",
    "address": "del Carmen, 1",
    "latitude": 40.4184049,
    "longitude": -3.703234
  },
  "fc67cb12": {
    "location_name": "Biblioteca Nacional",
    "address": "de Recoletos, 20 - 22",
    "latitude": 40.4238877,
    "longitude": -3.6900305
  },
  "2fd09bb6": {
    "location_name": "Museo Reina Sofía",
    "address": "de Santa Isabel, 52",
    "latitude": 40.4079189,
    "longitude": -3.6945566
  },
  "bd45b78f": {
    "location_name": "SOLO Independencia",
    "address": "de la Independencia, 5",
    "latitude": 40.4206267,
    "longitude": -3.6882458
  },
  "50b7e303": {
    "location_name": "Biblioteca Regional de la Comunidad de Madrid Joaquín Leguina",
    "address": "de Ramírez de Prado, 3",
    "latitude": 40.3997348,
    "longitude": -3.6906652
  },
  "313506e8": {
    "location_name": "Barrio de las Letras",
    "address": "Santa Ana, s/n",
    "latitude": 40.4147025,
    "longitude": -3.7008389
  },
  "e9c8b9e8": {
    "location_name": "Nomad Museo Inmersivo",
    "address": "Gran Vía, 78",
    "latitude": 40.4235445,
    "longitude": -3.7096594
  },
  "2cbd1ab4": {
    "location_name": "Sala Canal de Isabel II de la Comunidad de Madrid",
    "address": "de Santa Engracia, 125",
    "latitude": 40.4392262,
    "longitude": -3.7008285
  },
  "6e65cecf": {
    "location_name": "Teatros Luchana",
    "address": "de Luchana, 38",
    "latitude": 40.4318433,
    "longitude": -3.6981038
  },
  "6249eafd": {
    "location_name": "Galería de las Colecciones Reales",
    "address": "de Bailén, 8",
    "latitude": 40.4159416,
    "longitude": -3.7150162
  },
  "f9c4232a": {
    "location_name": "Teatro del Barrio",
    "address": "de Zurita, 20",
    "latitude": 40.4096362,
    "longitude": -3.6991806
  },
  "044f7fc6": {
    "location_name": "Gran Teatro CaixaBank Príncipe Pío",
    "address": "de San Vicente, 44",
    "latitude": 40.4205269,
    "longitude": -3.7185721
  },
  "f7e9c29a": {
    "location_name": "Plaza Mayor de Madrid",
    "address": "Mayor",
    "latitude": 40.415513708485,
    "longitude": -3.707402944565
  },
  "5b0ad2a4": {
    "location_name": "Real Academia de Medicina",
    "address": "de Arrieta, 12",
    "latitude": 40.4193745,
    "longitude": -3.7107696
  },
  "8c5e05a1": {
    "location_name": "Teatro Infanta Isabel",
    "address": "del Barquillo, 24",
    "latitude": 40.422252413672,
    "longitude": -3.695547580719
  },
  "296a3885": {
    "location_name": "AC Recoletos",
    "address": "Recoletos, 18",
    "latitude": 40.4213839,
    "longitude": -3.6895429
  },
  "e1c956b1": {
    "location_name": "Fundación María Cristina Masaveu Peterson",
    "address": "de Alcalá Galiano, 6",
    "latitude": 40.426665,
    "longitude": -3.6914466
  },
  "65f0f805": {
    "location_name": "SOLO CSV",
    "address": "de San Vicente, 36",
    "latitude": 40.4204973,
    "longitude": -3.717292
  },
  "5e67a282": {
    "location_name": "Fundación Canal. Sala Mateo Inurria",
    "address": "de Mateo Inurria, 2",
    "latitude": 40.4659647,
    "longitude": -3.6880118
  },
  "3c29714c": {
    "location_name": "CaixaForum Madrid",
    "address": "del Prado, 36",
    "latitude": 40.4111951,
    "longitude": -3.693625
  },
  "b57d1aec": {
    "location_name": "Sala Mirador",
    "address": "del Doctor Fourquet , 31",
    "latitude": 40.4070109,
    "longitude": -3.6988966
  },
  "f4267402": {
    "location_name": "Instituto San Isidro",
    "address": "de Toledo, 39",
    "latitude": 40.4127255,
    "longitude": -3.7072867
  },
  "ed301dfc": {
    "location_name": "IFEMA MADRID",
    "address": "del Partenón, 5",
    "latitude": 40.465157240748,
    "longitude": -3.616549993517
  },
  "58d00754": {
    "location_name": "Museo de América",
    "address": "de los Reyes Católicos, 6",
    "latitude": 40.4383749,
    "longitude": -3.721297
  },
  "7aeba039": {
    "location_name": "Centro Nacional de Golf",
    "address": "del Arroyo del Monte, 5",
    "latitude": 40.4855082,
    "longitude": -3.735279
  },
  "ae68c123": {
    "location_name": "Estación de Madrid - Chamartín - Clara Campoamor",
    "address": "Agustín de Foxa, s/n",
    "latitude": 40.471827591892,
    "longitude": -3.682526214322
  },
  "4869348f": {
    "location_name": "Teatro Serrano",
    "address": "de Serrano, 104",
    "latitude": 40.4342799,
    "longitude": -3.6862284
  },
  "aee0de0c": {
    "location_name": "Abya",
    "address": "de José Ortega y Gasset, 32",
    "latitude": 40.4299625,
    "longitude": -3.681306
  },
  "4549d7e6": {
    "location_name": "Recinto Ferial Casa de Campo",
    "address": "de Portugal, s/n",
    "latitude": 40.411306780645,
    "longitude": -3.739085197449
  },
  "54913fe0": {
    "location_name": "Museo del Prado",
    "address": "del Prado, s/n",
    "latitude": 40.41381,
    "longitude": -3.692524
  },
  "5cb800a8": {
    "location_name": "Movistar Academy Magariños",
    "address": "de Serrano, 129",
    "latitude": 40.44255,
    "longitude": -3.6862379
  },
  "9d921ff1": {
    "location_name": "Carabanchel",
    "address": "Calle del Petirrojo, 34",
    "latitude": 40.3907951,
    "longitude": -3.7462663
  },
  "12f732ab": {
    "location_name": "Artespacio Plot Point",
    "address": "de Ercilla, 29",
    "latitude": 40.401977082034,
    "longitude": -3.702038526535
  },
  "30c87bc1": {
    "location_name": "Salón de Baile del Teatro Real",
    "address": "de Isabel II, s/n",
    "latitude": 40.4184102,
    "longitude": -3.7093957
  },
  "8ca210f1": {
    "location_name": "Museo Nacional de Artes Decorativas",
    "address": "de Montalbán, 12",
    "latitude": 40.4177983,
    "longitude": -3.6897806
  },
  "0706fc4c": {
    "location_name": "Iglesia de San Antonio de los Alemanes",
    "address": "de la Puebla , 22",
    "latitude": 40.422464774016,
    "longitude": -3.703680038452
  },
  "0d7b035c": {
    "location_name": "Teatro Rialto",
    "address": "Gran Vía, 54",
    "latitude": 40.421345790817,
    "longitude": -3.707231283188
  },
  "94a66118": {
    "location_name": "Auditorio Nacional de Música",
    "address": "del Príncipe de Vergara, 146",
    "latitude": 40.4459662,
    "longitude": -3.6776947
  },
  "d4736963": {
    "location_name": "Teatro Eslava",
    "address": "del Arenal, 11",
    "latitude": 40.4171056,
    "longitude": -3.7065076
  },
  "1e8020f3": {
    "location_name": "Teatro Bellas Artes",
    "address": "del Marqués de Casa Riera, 2",
    "latitude": 40.418335878681,
    "longitude": -3.69638979435
  },
  "3a82f95a": {
    "location_name": "Jardín Banca March",
    "address": "de Castelló, 75",
    "latitude": 40.4305839,
    "longitude": -3.6814985
  },
  "5673f627": {
    "location_name": "Museo Lázaro Galdiano",
    "address": "de Serrano, 122",
    "latitude": 40.4369701,
    "longitude": -3.6857313
  },
  "db7a4d60": {
    "location_name": "Bululú 2120",
    "address": "de Canarias, 16",
    "latitude": 40.4019628,
    "longitude": -3.6964991
  },
  "86b6d704": {
    "location_name": "Museo Cerralbo",
    "address": "de Ventura Rodríguez, 17",
    "latitude": 40.4237979,
    "longitude": -3.7144623
  },
  "868a1c03": {
    "location_name": "Espacio Fundación Telefónica",
    "address": "de Fuencarral, 3",
    "latitude": 40.4204426,
    "longitude": -3.7017177
  },
  "f019fdda": {
    "location_name": "Capitol Gran Vía"
  },
  "e42e13eb": {
    "location_name": "Teatro Valle-Inclán",
    "address": "de Ana Diosdado, s/n",
    "latitude": 40.4083829,
    "longitude": -3.7006353
  },
  "7d9d1ca3": {
    "location_name": "Real Fábrica de Tapices",
    "address": "Fuenterrabía, 2",
    "latitude": 40.4061258,
    "longitude": -3.6822534
  },
  "c6461f0c": {
    "location_name": "Teatro Sofía",
    "address": "Gran Via, 70",
    "latitude": 40.4228955,
    "longitude": -3.7094414
  },
  "266b092b": {
    "location_name": "Teatro María Guerrero",
    "address": "de Tamayo y Baus, 4",
    "latitude": 40.422889492692,
    "longitude": -3.693037033081
  },
  "c05dd0a1": {
    "location_name": "Teatro Calderón",
    "address": "de Atocha, 18",
    "latitude": 40.414043355837,
    "longitude": -3.703497648239
  },
  "6666116c": {
    "location_name": "Casa Árabe",
    "address": "de Alcalá, 62",
    "latitude": 40.4216694,
    "longitude": -3.6818155
  },
  "4abde3ad": {
    "location_name": "Fever Hub Madrid",
    "address": "Raimundo Fernández Villaverde, 57",
    "latitude": 40.4470496,
    "longitude": -3.696194
  },
  "eec48cba": {
    "location_name": "Espacio Delicias",
    "address": "de las Delicias, 61",
    "latitude": 40.4003158,
    "longitude": -3.6936386
  },
  "79b10898": {
    "location_name": "OXO. Museo del Videojuego en Madrid",
    "address": "del Postigo de San Martín, 8",
    "latitude": 40.419292,
    "longitude": -3.7058932
  },
  "e2ed1fa1": {
    "location_name": "Instituto Cervantes",
    "address": "de Alcalá, 49",
    "latitude": 40.419341,
    "longitude": -3.695351
  },
  "7b154a93": {
    "location_name": "Residencia de Estudiantes",
    "address": "del Pinar, 21-23",
    "latitude": 40.4406757,
    "longitude": -3.6879973
  },
  "59c4658b": {
    "location_name": "Depósito elevado de Plaza de Castilla",
    "address": "de Castilla, 9",
    "latitude": 40.4655316,
    "longitude": -3.6887836
  },
  "6b53182a": {
    "location_name": "La Nueva Cubierta de Leganés",
    "address": "del Maestro, 4",
    "latitude": 40.3256059,
    "longitude": -3.7589334
  },
  "d700ab39": {
    "location_name": "La Casa de la Arquitectura (Arquería de Nuevos Ministerios)",
    "address": "de la Castellana, 67",
    "latitude": 40.444865,
    "longitude": -3.6926507
  },
  "1f1e0e14": {
    "location_name": "Movistar Arena (WiZink Center)",
    "address": "de Felipe II, s/n",
    "latitude": 40.4241371,
    "longitude": -3.6749756
  },
  "8608aaad": {
    "location_name": "Café Central Ateneo",
    "address": "de Santa Catalina, 10",
    "latitude": 40.4154432,
    "longitude": -3.6979046
  },
  "b7019de4": {
    "location_name": "Teatro de La Abadía",
    "address": "de Fernández de los Ríos, 42",
    "latitude": 40.435303161468,
    "longitude": -3.70943069458
  },
  "9c507af8": {
    "location_name": "Museo del Romanticismo",
    "address": "de San Mateo, 13",
    "latitude": 40.4259204,
    "longitude": -3.6987727
  },
  "0f65d248": {
    "location_name": "Museo del Traje",
    "address": "de Juan de Herrera, 2",
    "latitude": 40.4400973,
    "longitude": -3.7289688
  },
  "82e42bdc": {
    "location_name": "Jardín Botánico de la Universidad Complutense (Real Jardín Botánico Alfonso XIII)",
    "address": "Complutense, s/n",
    "latitude": 40.447298141613,
    "longitude": -3.726317882538
  },
  "928cf7d2": {
    "location_name": "Intermediæ (Matadero)",
    "address": "de la Chopera, 14",
    "latitude": 40.3923033,
    "longitude": -3.69743
  },
  "faef8eee": {
    "location_name": "Galería Elvira González",
    "address": "de los Hermanos Alvárez Quintero , 1",
    "latitude": 40.4272699,
    "longitude": -3.6976072
  },
  "e9af25a5": {
    "location_name": "Museo ICO",
    "address": "de Zorrilla, 3",
    "latitude": 40.416864,
    "longitude": -3.6977864
  },
  "5e098d10": {
    "location_name": "Nave 0 (Matadero)",
    "address": "de Legazpi , 8",
    "latitude": 40.3910873,
    "longitude": -3.6981435
  },
  "94c2d0f2": {
    "location_name": "Fundación MAPFRE. Sala Recoletos",
    "address": "de Recoletos, 23",
    "latitude": 40.4227242,
    "longitude": -3.6923964
  },
  "097cd5fb": {
    "location_name": "Teatro Amaya",
    "address": "del General Martínez Campos, 9",
    "latitude": 40.4351546,
    "longitude": -3.6971056
  },
  "1fbee8ae": {
    "location_name": "Centro Cultural de China en Madrid",
    "address": "del General Pardiñas, 73",
    "latitude": 40.4340721,
    "longitude": -3.6783231
  },
  "4ab76119": {
    "location_name": "Teatro de la Zarzuela",
    "address": "de Jovellanos, 4",
    "latitude": 40.417129,
    "longitude": -3.6973724
  },
  "9311565f": {
    "location_name": "Casa de América",
    "address": "de Cibeles, 2",
    "latitude": 40.4203039,
    "longitude": -3.6916235
  },
  "04ac1adc": {
    "location_name": "Centro Cultural Coreano en España",
    "address": "de la Castellana, 15",
    "latitude": 40.4281099,
    "longitude": -3.6901699
  },
  "24c6eabf": {
    "location_name": "Palacio de Santa Bárbara",
    "address": "de Hortaleza, 87",
    "latitude": 40.4263218,
    "longitude": -3.6971378
  },
  "d16522a8": {
    "location_name": "Centre Cultural - Librería Blanquerna",
    "address": "de Orense, 62",
    "latitude": 40.4603195,
    "longitude": -3.6938521
  },
  "438080e7": {
    "location_name": "Fundación Casa de México en España",
    "address": "de Alberto Aguilera, 20",
    "latitude": 40.4301378,
    "longitude": -3.7092035
  },
  "4d6147eb": {
    "location_name": "Biblioteca Histórica UCM Marqués de Valdecilla",
    "address": "del Noviciado, 3",
    "latitude": 40.4254782,
    "longitude": -3.7078981
  },
  "0d332ccb": {
    "location_name": "Museo de San Isidro. Los Orígenes de Madrid",
    "address": "de San Andrés, 2",
    "latitude": 40.4120833,
    "longitude": -3.7110676
  },
  "027f0347": {
    "location_name": "Teatros del Canal",
    "address": "de Cea Bermúdez, 1",
    "latitude": 40.4382782,
    "longitude": -3.705182
  },
  "dc35bc1f": {
    "location_name": "Real Academia de Bellas Artes de San Fernando",
    "address": "de Alcalá, 13",
    "latitude": 40.4179384,
    "longitude": -3.7007453
  },
  "c3c68494": {
    "location_name": "Centro Deportivo Alcalá de Henares",
    "address": "Gustavo Adolfo Bécquer, 64",
    "latitude": 40.5082938,
    "longitude": -3.3608554
  },
  "fb2e8450": {
    "location_name": "Ciudad del Rock de Arganda del Rey",
    "address": "Autovía A3, km 33",
    "latitude": 40.259649513099,
    "longitude": -3.405804634094
  },
  "9d5eb577": {
    "location_name": "La Riviera",
    "address": "Bajo de la Virgen del Puerto, s/n",
    "latitude": 40.413001836606,
    "longitude": -3.722155094147
  },
  "9a5be362": {
    "location_name": "Palacio Vistalegre Arena",
    "address": "de Utebo , 1",
    "latitude": 40.386027002165,
    "longitude": -3.738570213318
  },
  "2b9a4735": {
    "location_name": "Estadio Riyadh Air Metropolitano",
    "address": "de Luis Aragonés, s/n",
    "latitude": 40.436299422388,
    "longitude": -3.599481582642
  },
  "07d16a57": {
    "location_name": "AZarte",
    "address": "de San Marcos, 19",
    "latitude": 40.421481,
    "longitude": -3.698307
  },
  "0fea76f9": {
    "location_name": "Calle Mateo Inurria",
    "address": "Calle Mateo Inurria",
    "latitude": 40.4670467,
    "longitude": -3.6844998
  },
  "d3b83b90": {
    "location_name": "Centro Sefarad-Israel",
    "address": "Mayor, 69",
    "latitude": 40.4153333,
    "longitude": -3.7111881
  },
  "04e6002e": {
    "location_name": "Instituto de la Ingeniería de España",
    "address": "del General Arrando, 38",
    "latitude": 40.4316262,
    "longitude": -3.6930899
  },
  "739a4956": {
    "location_name": "Auditorio Miguel Ríos Rivas Vaciamadrid",
    "address": "Alicia Alonso, s/n",
    "latitude": 40.343821,
    "longitude": -3.5138282
  },
  "a6035e83": {
    "location_name": "Sala de Arte Joven de la Comunidad de Madrid",
    "address": "de América, 13",
    "latitude": 40.4385164,
    "longitude": -3.6764022
  },
  "1253542e": {
    "location_name": "Plaza de Colón",
    "address": "de Colón",
    "latitude": 40.4251462,
    "longitude": -3.690715
  },
  "f497a8a8": {
    "location_name": "Café Berlín Club Madrid",
    "address": "de los Ángeles, 20",
    "latitude": 40.4195969,
    "longitude": -3.7079269
  },
  "60383778": {
    "location_name": "Teatro La Latina",
    "address": "de la Cebada, 2",
    "latitude": 40.411436,
    "longitude": -3.7087536
  },
  "22fd9956": {
    "location_name": "UMusic Hotel Teatro Albéniz",
    "address": "de la Paz, 11",
    "latitude": 40.4153478,
    "longitude": -3.7041116
  },
  "d46f99a6": {
    "location_name": "Plaza de Pedro Zerolo, Plaza del Rey, Puerta del Sol y Plaza de España",
    "address": "Plaza de Pedro Zerolo, Plaza del Rey, Puerta del Sol, Plaza de España.",
    "latitude": 40.421044233242,
    "longitude": -3.699442454971
  },
  "2c0dd596": {
    "location_name": "Parque de la Bombilla",
    "address": "de Valladolid, 4",
    "latitude": 40.426695505753,
    "longitude": -3.726253509522
  },
  "fcacf969": {
    "location_name": "Nave 73",
    "address": "de Palos de la Frontera, 5",
    "latitude": 40.4031923,
    "longitude": -3.698758
  },
  "f8afdb46": {
    "location_name": "Teatro Soho Madrid",
    "address": "de España, 6, 1 planta",
    "latitude": 40.4225603,
    "longitude": -3.71184
  },
  "3cb28b4b": {
    "location_name": "Universidad Autónoma de Madrid (Campus Cantoblanco)",
    "address": "Ciudad universitaria de Cantoblanco",
    "latitude": 40.5438425,
    "longitude": -3.7001859
  },
  "9d984b5f": {
    "location_name": "Casa Museo Lope de Vega",
    "address": "de Cervantes, 11",
    "latitude": 40.4144227,
    "longitude": -3.697431
  },
  "0d71ace6": {
    "location_name": "Sala Villanos",
    "address": "de Bernardino Obregón, 18",
    "latitude": 40.4039502,
    "longitude": -3.7002267
  },
  "1fc28150": {
    "location_name": "Iberdrola Music",
    "address": "Laguna Dalga",
    "latitude": 40.3319159,
    "longitude": -3.7067466
  },
  "4da9be7c": {
    "location_name": "Autocine Madrid",
    "address": "de la Isla de Java, 2",
    "latitude": 40.486893,
    "longitude": -3.6779918
  },
  "134e1cee": {
    "location_name": "Siroco",
    "address": "de San Dimas, 3",
    "latitude": 40.4269445,
    "longitude": -3.7077564
  },
  "b74eada6": {
    "location_name": "Puerta del Sol",
    "address": "Puerta del Sol,",
    "latitude": 40.4167139,
    "longitude": -3.7034836
  },
  "50107e1c": {
    "location_name": "Teatro Real",
    "address": "de Isabel II, s/n",
    "latitude": 40.418299121798,
    "longitude": -3.710589408875
  },
  "d0126c67": {
    "location_name": "Espacios Fiestas del Orgullo LGTBI+",
    "address": "Chueca",
    "latitude": 40.4225986,
    "longitude": -3.6977987
  },
  "e42e9264": {
    "location_name": "Caja Mágica",
    "address": "de Perales, 23",
    "latitude": 40.368908,
    "longitude": -3.684098
  },
  "662ce9f8": {
    "location_name": "Parque de Santander (Parque del Tercer Depósito)",
    "address": "de Filipinas, 11",
    "latitude": 40.4415537,
    "longitude": -3.7065042
  },
  "b50a3188": {
    "location_name": "Federación de Tenis de Madrid",
    "address": "de San Cugat del Vallés, s/n",
    "latitude": 40.4967717,
    "longitude": -3.6949222
  },
  "ce6a0c87": {
    "location_name": "Real Jardín Botánico",
    "address": "de Murillo, 2",
    "latitude": 40.411363,
    "longitude": -3.6908507
  },
  "d220e114": {
    "location_name": "Iglesia de Santa Teresa de Jesús y San José",
    "address": "de España, 14",
    "latitude": 40.422571,
    "longitude": -3.7148706
  },
  "2c118b55": {
    "location_name": "DT Espacio Escénico",
    "address": "de la Reina, 9",
    "latitude": 40.4205184,
    "longitude": -3.7002514
  },
  "608b9f53": {
    "location_name": "Centro Comercial y de Ocio Palacio de Hielo",
    "address": "de Silvano, 77",
    "latitude": 40.4632213,
    "longitude": -3.6370595
  },
  "b346de2e": {
    "location_name": "Galería de Cristal (Palacio de Cibeles)",
    "address": "de Montalbán, 1",
    "latitude": 40.4182856,
    "longitude": -3.69169
  },
  "26613e22": {
    "location_name": "Sala Berlanga",
    "address": "de Andrés Mellado, 53",
    "latitude": 40.4359272,
    "longitude": -3.7144398
  },
  "871b85d1": {
    "location_name": "Sala Mon Live",
    "address": "de Hilarión Eslava, 36",
    "latitude": 40.4359056,
    "longitude": -3.7164565
  },
  "7399986c": {
    "location_name": "Galileo Galilei",
    "address": "de Galileo, 100",
    "latitude": 40.4385159,
    "longitude": -3.7096388
  },
  "24d0cdde": {
    "location_name": "C Arte C",
    "address": "de Juan de Herrera, 2",
    "latitude": 40.4400973,
    "longitude": -3.7289688
  },
  "76412415": {
    "location_name": "Capilla del Oidor",
    "address": "Capilla del Oidor, Plaza de Cervantes",
    "latitude": 40.4815886,
    "longitude": -3.3633671
  },
  "3737ef68": {
    "location_name": "Plaza de España",
    "address": "de España, s/n",
    "latitude": 40.4234231,
    "longitude": -3.7135602
  },
  "d28750db": {
    "location_name": "Barrio de Lavapiés",
    "address": "Barrio de Lavapiés",
    "latitude": 40.4084422,
    "longitude": -3.7007926
  },
  "e7a6dc9e": {
    "location_name": "Sala Alcalá 31 de la Comunidad de Madrid",
    "address": "de Alcalá, 31",
    "latitude": 40.4185177,
    "longitude": -3.6983372
  },
  "e2ffcb7e": {
    "location_name": "Galería Espacio Landaburu",
    "address": "Travesía de la Encomienda, 3",
    "latitude": 40.4110309,
    "longitude": -3.7054037
  },
  "cd08fd44": {
    "location_name": "Lula Club",
    "address": "Gran Vía, 54",
    "latitude": 40.4213584,
    "longitude": -3.7073085
  },
  "008e9b3f": {
    "location_name": "Varias salas de Madrid"
  },
  "9b2ba2ac": {
    "location_name": "La Usina",
    "address": "de Palos de la Frontera, 4",
    "latitude": 40.4025525,
    "longitude": -3.6999978
  },
  "4b4d8238": {
    "location_name": "Teatro Pradillo",
    "address": "de Pradillo, 12",
    "latitude": 40.4485,
    "longitude": -3.6747226
  },
  "a39a77f1": {
    "location_name": "Teatro Lagrada",
    "address": "de Ercilla, 20",
    "latitude": 40.4026932,
    "longitude": -3.7029826
  },
  "8a44a3a4": {
    "location_name": "Salto Escénico",
    "address": "de Granada, 10",
    "latitude": 40.4048908,
    "longitude": -3.6799369
  },
  "cfdf6f71": {
    "location_name": "Espacio Abierto Quinta de los Molinos",
    "address": "de Juan Ignacio Luca de Tena , 20",
    "latitude": 40.4475712,
    "longitude": -3.6293005
  },
  "c559b35b": {
    "location_name": "Leica Gallery Madrid",
    "address": "de José Ortega y Gasset, 34",
    "latitude": 40.4299874,
    "longitude": -3.6808178
  },
  "ccabc517": {
    "location_name": "Sala But",
    "address": "de Barceló, 11",
    "latitude": 40.4270028,
    "longitude": -3.6997019
  },
  "2c3a5fbc": {
    "location_name": "Teatro Monumental",
    "address": "de Atocha, 65",
    "latitude": 40.4125,
    "longitude": -3.6991667
  },
  "e80eae3e": {
    "location_name": "Real Coliseo de Carlos III",
    "address": "Floridablanca, 20",
    "latitude": 40.5910509,
    "longitude": -4.1468961
  },
  "e097f20e": {
    "location_name": "Estadio Vallehermoso",
    "address": "de Melquíades Álvarez, 19",
    "latitude": 40.444795769821,
    "longitude": -3.708587896684
  }
}