{
  "3d1689d6": {
    "location_name": "Centro Sefarad-Israel",
    "address": "Mayor, 69",
    "latitude": 40.4153052,
    "longitude": -3.7112096
  },
  "ba6fdac1": {
    "location_name": "Espacio Fundación Telefónica",
    "address": "de Fuencarral, 3",
    "latitude": 40.4204426,
    "longitude": -3.7017177
  },
  "eec48cba": {
    "location_name": "Espacio Delicias",
    "address": "de las Delicias, 61",
    "latitude": 40.397883697556,
    "longitude": -3.688788414002
  },
  "bb29009c": {
    "location_name": "CentroCentro",
    "address": "de Cibeles, 1",
    "latitude": 40.4191483,
    "longitude": -3.6920903
  },
  "dc35bc1f": {
    "location_name": "Real Academia de Bellas Artes de San Fernando",
    "address": "de Alcalá, 13",
    "latitude": 40.4179384,
    "longitude": -3.7007453
  },
  "2b4bae9b": {
    "location_name": "Fundación Canal Sala Castellana 214",
    "address": "de la Castellana, 214",
    "latitude": 40.463602,
    "longitude": -3.688925
  },
  "9e24c4ba": {
    "location_name": "Centro de Arte Dos de Mayo (CA2M) / Móstoles",
    "address": "de la Constitución , 23",
    "latitude": 40.324707,
    "longitude": -3.863246
  },
  "0316a58d": {
    "location_name": "B the travel brand Xperience Madrid",
    "address": "de Miguel Ángel, 33",
    "latitude": 40.4378565,
    "longitude": -3.6915244
  },
  "3997d10f": {
    "location_name": "Galería de las Colecciones Reales",
    "address": "de Bailén, 8",
    "latitude": 40.416684880488,
    "longitude": -3.71595441807
  },
  "a1af948d": {
    "location_name": "Teatro Gran Vía",
    "address": "de Gran Vía, 66",
    "latitude": 40.4224128,
    "longitude": -3.7089378
  },
  "17616d68": {
    "location_name": "Teatro Lara - Sala Cándido Lara",
    "address": "Corredera Baja de San Pablo, 15",
    "latitude": 40.4220989,
    "longitude": -3.7044511
  },
  "1e352ee3": {
    "location_name": "COAM",
    "address": "de Hortaleza, 63",
    "latitude": 40.4240359,
    "longitude": -3.698986
  },
  "39528063": {
    "location_name": "Fundación Ramón Menéndez Pidal",
    "address": "Calle de Menéndez Pidal, 5"
  },
  "620aba3b": {
    "location_name": "Matadero Madrid",
    "address": "de Legazpi, 8",
    "latitude": 40.3915817,
    "longitude": -3.6963598
  },
  "a422787f": {
    "location_name": "La Casa de la Arquitectura (Arquería de Nuevos Ministerios)",
    "address": "de la Castellana, 67",
    "latitude": 40.4435818,
    "longitude": -3.6935795
  },
  "62888fb3": {
    "location_name": "Paseo del Pintor Rosales, 30",
    "address": "Paseo del Pintor Rosales, 30, 28008 Madrid"
  },
  "47e9c7c5": {
    "location_name": "Museo Casa de La Moneda",
    "address": "del Doctor Esquerdo, 36",
    "latitude": 40.4226001,
    "longitude": -3.6691398
  },
  "31e63917": {
    "location_name": "La Casa Encendida",
    "address": "de Valencia, 2",
    "latitude": 40.4060622,
    "longitude": -3.6999668
  },
  "fc67cb12": {
    "location_name": "Biblioteca Nacional",
    "address": "de Recoletos, 20 - 22",
    "latitude": 40.4238877,
    "longitude": -3.6900305
  },
  "86b6d704": {
    "location_name": "Museo Cerralbo",
    "address": "de Ventura Rodríguez, 17",
    "latitude": 40.423767508377,
    "longitude": -3.714542984963
  },
  "40bf545b": {
    "location_name": "Museo de América",
    "address": "de los Reyes Católicos, 6",
    "latitude": 40.438275,
    "longitude": -3.7219676
  },
  "fd081fab": {
    "location_name": "Museo de Arte Contemporáneo",
    "address": "del Conde Duque, 9",
    "latitude": 40.4269963,
    "longitude": -3.7109397
  },
  "973a6894": {
    "location_name": "Museo de Historia",
    "address": "de Fuencarral, 78",
    "latitude": 40.4257954,
    "longitude": -3.7007992
  },
  "7ed4c244": {
    "location_name": "UMusic Hotel Teatro Albéniz",
    "address": "de la Paz, 11",
    "latitude": 40.4153449,
    "longitude": -3.7041017
  },
  "24d0cdde": {
    "location_name": "C Arte C",
    "address": "de Juan de Herrera, 2",
    "latitude": 40.4400973,
    "longitude": -3.7289688
  },
  "530f05ff": {
    "location_name": "Museo Nacional de Antropología",
    "address": "de Alfonso XII, 68",
    "latitude": 40.4077713,
    "longitude": -3.6890236
  },
  "41cfd2ba": {
    "location_name": "Conde Duque",
    "address": "del Conde Duque, 11",
    "latitude": 40.427887,
    "longitude": -3.710802
  },
  "bebd45c9": {
    "location_name": "Museo Nacional de Ciencias Naturales",
    "address": "de José Gutierrez Abascal, 2",
    "latitude": 40.4416762,
    "longitude": -3.6901373
  },
  "8c5e05a1": {
    "location_name": "Teatro Infanta Isabel",
    "address": "del Barquillo, 24",
    "latitude": 40.42223,
    "longitude": -3.6954356
  },
  "c729b104": {
    "location_name": "Museo Naval",
    "address": "del Prado, 3",
    "latitude": 40.417788607461,
    "longitude": -3.692720532417
  },
  "3c29714c": {
    "location_name": "CaixaForum Madrid",
    "address": "del Prado, 36",
    "latitude": 40.4111951,
    "longitude": -3.693625
  },
  "74039886": {
    "location_name": "Museo Arqueológico Nacional",
    "address": "de Serrano, 13",
    "latitude": 40.4234939,
    "longitude": -3.6889607
  },
  "a20b3909": {
    "location_name": "Museo Reina Sofía",
    "address": "de Santa Isabel, 52",
    "latitude": 40.4079189,
    "longitude": -3.6945566
  },
  "ea3477e5": {
    "location_name": "Palacio de Cristal",
    "address": "de República de Cuba, 4",
    "latitude": 40.4136275,
    "longitude": -3.6820393
  },
  "6a898138": {
    "location_name": "Nuevo Teatro Alcalá",
    "address": "de Jorge Juan, 62",
    "latitude": 40.423395884533,
    "longitude": -3.678274154663
  },
  "1fef966e": {
    "location_name": "Teatro Valle-Inclán",
    "address": "de Ana Diosdado, s/n",
    "latitude": 40.4083829,
    "longitude": -3.7006353
  },
  "0d7b035c": {
    "location_name": "Teatro Rialto",
    "address": "Gran Vía, 54",
    "latitude": 40.421345790817,
    "longitude": -3.707231283188
  },
  "e9af25a5": {
    "location_name": "Museo ICO",
    "address": "de Zorrilla, 3",
    "latitude": 40.416864,
    "longitude": -3.6977864
  },
  "9b8caeeb": {
    "location_name": "Leica Madrid Gallery",
    "address": "Ortega y Gasset 34"
  },
  "04ba1f3c": {
    "location_name": "Casa Árabe",
    "address": "de Alcalá, 62",
    "latitude": 40.4216694,
    "longitude": -3.6818155
  },
  "4419484d": {
    "location_name": "Biblioteca Histórica UCM Marqués de Valdecilla",
    "address": "del Noviciado, 3",
    "latitude": 40.4254782,
    "longitude": -3.7078981
  },
  "64c433c7": {
    "location_name": "Círculo de Bellas Artes",
    "address": "de Alcalá, 42",
    "latitude": 40.4181017,
    "longitude": -3.6964787
  },
  "f749255f": {
    "location_name": "Fernán Gómez Centro Cultural de la Villa",
    "address": "de Colón , 4",
    "latitude": 40.424637345173,
    "longitude": -3.689861297607
  },
  "1cf7e237": {
    "location_name": "Teatro María Guerrero",
    "address": "de Tamayo y Baus, 4",
    "latitude": 40.4228731,
    "longitude": -3.6927134
  },
  "84f672c5": {
    "location_name": "Brach Madrid",
    "address": "Gran Vía, 20",
    "latitude": 40.4197037,
    "longitude": -3.6990886
  },
  "a8533229": {
    "location_name": "Instituto Cultural de México en España",
    "address": "de San Jerónimo, 46",
    "latitude": 40.416045,
    "longitude": -3.6973904
  },
  "32368ec0": {
    "location_name": "Galería de Arte Javier Aranburu - Flashara",
    "address": "Guzmán el Bueno, 63"
  },
  "4abde3ad": {
    "location_name": "Fever Hub Madrid",
    "address": "Raimundo Fernández Villaverde, 57"
  },
  "a69a9dde": {
    "location_name": "Nave 0 (Matadero)",
    "address": "de Legazpi , 8",
    "latitude": 40.3910873,
    "longitude": -3.6981435
  },
  "a39f00f6": {
    "location_name": "Palacio de Liria",
    "address": "de la Princesa, 20",
    "latitude": 40.427732729479,
    "longitude": -3.712424039841
  },
  "e60f1fa6": {
    "location_name": "Fundación Casa de México en España",
    "address": "de Alberto Aguilera, 20",
    "latitude": 40.4301378,
    "longitude": -3.7092035
  },
  "e0c3a08b": {
    "location_name": "Imprenta Municipal-Artes del Libro",
    "address": "de Concepción Jerónima, 15",
    "latitude": 40.41362,
    "longitude": -3.705555
  },
  "1f1e5d44": {
    "location_name": "Museo de San Isidro. Los Orígenes de Madrid",
    "address": "de San Andrés, 2",
    "latitude": 40.412148187254,
    "longitude": -3.711002469063
  },
  "abd05f2e": {
    "location_name": "Gran Teatro Pavón",
    "address": "de Embajadores, 9",
    "latitude": 40.4099808,
    "longitude": -3.706131
  },
  "9549e3a6": {
    "location_name": "Fundación María Cristina Masaveu Peterson",
    "address": "de Alcalá Galiano, 6",
    "latitude": 40.426665,
    "longitude": -3.6914466
  },
  "e9c8b9e8": {
    "location_name": "Nomad Museo Inmersivo",
    "address": "Gran Vía, 78",
    "latitude": 40.4235445,
    "longitude": -3.7096594
  },
  "7aa4af03": {
    "location_name": "Teatro de la Comedia",
    "address": "del Príncipe, 14",
    "latitude": 40.4156207,
    "longitude": -3.70072
  },
  "4e000900": {
    "location_name": "Centro Cultural Coreano en España",
    "address": "de la Castellana, 15",
    "latitude": 40.4281099,
    "longitude": -3.6901699
  },
  "0e7756d3": {
    "location_name": "Museo del Ferrocarril",
    "address": "de las Delicias, 61",
    "latitude": 40.398749783694,
    "longitude": -3.691465258598
  },
  "50107e1c": {
    "location_name": "Teatro Real",
    "address": "de Isabel II, s/n",
    "latitude": 40.418299121798,
    "longitude": -3.710589408875
  },
  "5989b7b0": {
    "location_name": "Museo ABC",
    "address": "de Amaniel, 29",
    "latitude": 40.4281043,
    "longitude": -3.7097008
  },
  "f71df64e": {
    "location_name": "Real Jardín Botánico",
    "address": "de Murillo, 2",
    "latitude": 40.4122193,
    "longitude": -3.6919986
  },
  "2d6a6a9b": {
    "location_name": "Fundación Ortega - Marañón",
    "address": "de Fortuny, 53",
    "latitude": 40.4348973,
    "longitude": -3.6906978
  },
  "9b878d58": {
    "location_name": "Sala Alcalá 31 de la Comunidad de Madrid",
    "address": "de Alcalá, 31",
    "latitude": 40.418472695791,
    "longitude": -3.698229789734
  },
  "7b154a93": {
    "location_name": "Residencia de Estudiantes",
    "address": "del Pinar, 21-23",
    "latitude": 40.4406577,
    "longitude": -3.6880526
  },
  "2c103545": {
    "location_name": "Teatro Español",
    "address": "del Príncipe, 25",
    "latitude": 40.414945992798,
    "longitude": -3.700187802315
  },
  "a6035e83": {
    "location_name": "Sala de Arte Joven de la Comunidad de Madrid",
    "address": "de América, 13",
    "latitude": 40.438610364244,
    "longitude": -3.676316142082
  },
  "95146abe": {
    "location_name": "Sala de Exposiciones del Banco de España",
    "address": "de Alcalá, 48",
    "latitude": 40.418625848941,
    "longitude": -3.694410324097
  },
  "bc4d3d19": {
    "location_name": "Pequeño Teatro Gran Vía",
    "address": "Gran Vía, 66",
    "latitude": 40.422430061313,
    "longitude": -3.708958625794
  },
  "e0cf7b27": {
    "location_name": "Centro Cultural Clara del Rey - Museo ABC",
    "address": "de Amaniel, 29 - 31",
    "latitude": 40.4281043,
    "longitude": -3.7097008
  },
  "0a572068": {
    "location_name": "Auditorio y Sala de Exposiciones Paco de Lucía",
    "address": "de Las Aguilas, 2",
    "latitude": 40.3850545,
    "longitude": -3.7642101
  },
  "d7359ee0": {
    "location_name": "Fundación MAPFRE. Sala Recoletos",
    "address": "de Recoletos, 23",
    "latitude": 40.4227242,
    "longitude": -3.6923964
  },
  "da578583": {
    "location_name": "Casa del Lector (Matadero)",
    "address": "de la Chopera, 14",
    "latitude": 40.3923033,
    "longitude": -3.69743
  },
  "54913fe0": {
    "location_name": "Museo del Prado",
    "address": "del Prado, s/n",
    "latitude": 40.41381,
    "longitude": -3.692524
  },
  "a68f2f4d": {
    "location_name": "Montaña de los Gatos",
    "address": "de Fernán Núñez, 30",
    "latitude": 40.4211182,
    "longitude": -3.6805514
  },
  "2f17adeb": {
    "location_name": "Casa de América",
    "address": "de Cibeles, 2",
    "latitude": 40.4203039,
    "longitude": -3.6916235
  },
  "5b0ad2a4": {
    "location_name": "Real Academia de Medicina",
    "address": "de Arrieta, 12",
    "latitude": 40.4193745,
    "longitude": -3.7107696
  },
  "9c507af8": {
    "location_name": "Museo del Romanticismo",
    "address": "de San Mateo, 13",
    "latitude": 40.4259179,
    "longitude": -3.6987722
  },
  "65f0f805": {
    "location_name": "SOLO CSV",
    "address": "de San Vicente, 36",
    "latitude": 40.4204973,
    "longitude": -3.717292
  },
  "2cbd1ab4": {
    "location_name": "Sala Canal de Isabel II de la Comunidad de Madrid",
    "address": "de Santa Engracia, 125",
    "latitude": 40.4392262,
    "longitude": -3.7008285
  },
  "8d2bd4f9": {
    "location_name": "Parroquia de Santa Ana y la Esperanza",
    "address": "Cañada, 35"
  },
  "8f6b0022": {
    "location_name": "Teamlabs",
    "address": "de San Martín, 1",
    "latitude": 40.4115781,
    "longitude": -3.7066992
  },
  "bf00a41d": {
    "location_name": "Museo Lázaro Galdiano",
    "address": "de Serrano, 122",
    "latitude": 40.4369701,
    "longitude": -3.6857313
  },
  "8f711d13": {
    "location_name": "Museo Nacional Thyssen-Bornemisza",
    "address": "del Prado, 8",
    "latitude": 40.4160406,
    "longitude": -3.6949254
  },
  "7d641e00": {
    "location_name": "Fundación Juan March",
    "address": "de Castelló, 77",
    "latitude": 40.4312498,
    "longitude": -3.6813881
  },
  "22a0d9bd": {
    "location_name": "Jardines del Campo del Moro",
    "address": "Virgen del Puerto, s/n",
    "latitude": 40.419373480398,
    "longitude": -3.721158124784
  },
  "1e8020f3": {
    "location_name": "Teatro Bellas Artes",
    "address": "del Marqués de Casa Riera, 2",
    "latitude": 40.418335878681,
    "longitude": -3.69638979435
  },
  "1c88f612": {
    "location_name": "Teatro Ocaso Coliseum",
    "address": "Gran Vía, 78",
    "latitude": 40.42353,
    "longitude": -3.7096604
  },
  "76109031": {
    "location_name": "Teatro de La Abadía",
    "address": "de Fernández de los Ríos, 42",
    "latitude": 40.435303161468,
    "longitude": -3.70943069458
  },
  "29d119f2": {
    "location_name": "El silo de Hortaleza",
    "address": "del Mar de las Antillas, 8 (Parque Huerta de la Salud)",
    "latitude": 40.4753178,
    "longitude": -3.6465498
  },
  "4eaff4b1": {
    "location_name": "Teatro Lara - Sala Lola Membrives",
    "address": "Baja de San Pablo, 15",
    "latitude": 40.4220989,
    "longitude": -3.7044511
  },
  "a86710b7": {
    "location_name": "Filmoteca Española",
    "address": "de la Magdalena, 10",
    "latitude": 40.412287059178,
    "longitude": -3.702210187912
  },
  "e28cdcb5": {
    "location_name": "Teatro Apolo",
    "address": "de Tirso de Molina, 1",
    "latitude": 40.4123371,
    "longitude": -3.7033164
  },
  "ed301dfc": {
    "location_name": "IFEMA MADRID",
    "address": "del Partenón, 5",
    "latitude": 40.465157240748,
    "longitude": -3.616549993517
  },
  "298413a7": {
    "location_name": "Fundación Canal. Sala Mateo Inurria",
    "address": "de Mateo Inurria, 2",
    "latitude": 40.4659647,
    "longitude": -3.6880118
  },
  "46526d7e": {
    "location_name": "La Neomudéjar",
    "address": "Antonio Nebrija, s/n",
    "latitude": 40.4041478,
    "longitude": -3.6840492
  },
  "6e65cecf": {
    "location_name": "Teatros Luchana",
    "address": "de Luchana, 38",
    "latitude": 40.4318433,
    "longitude": -3.6981038
  },
  "8c8bfaa5": {
    "location_name": "Teatro Alcázar",
    "address": "de Alcalá, 20",
    "latitude": 40.4177853,
    "longitude": -3.6990893
  },
  "9940699e": {
    "location_name": "Teatro Marquina",
    "address": "de Prim, 11",
    "latitude": 40.42196654292,
    "longitude": -3.693729043007
  },
  "60383778": {
    "location_name": "Teatro La Latina",
    "address": "de la Cebada, 2",
    "latitude": 40.411445654305,
    "longitude": -3.708760142326
  },
  "f4267402": {
    "location_name": "Instituto San Isidro",
    "address": "de Toledo, 39",
    "latitude": 40.4127255,
    "longitude": -3.7072867
  },
  "d7ff3b48": {
    "location_name": "Teatro Calderón",
    "address": "de Atocha, 18",
    "latitude": 40.414043355837,
    "longitude": -3.703497648239
  },
  "f3a2b16d": {
    "location_name": "La Vaguada",
    "address": "de Monforte de Lemos, 36",
    "latitude": 40.479712251929,
    "longitude": -3.707220554352
  },
  "7d9d4e27": {
    "location_name": "Gran Teatro CaixaBank Príncipe Pío",
    "address": "de San Vicente, 44",
    "latitude": 40.4209943,
    "longitude": -3.7187873
  },
  "78f8018a": {
    "location_name": "Centro Cultural Puerta de Toledo (Centro)",
    "address": "AVENIDA GRAN VIA DE SAN FRANCISCO 2",
    "district": "Centro",
    "latitude": 40.40741060830642,
    "longitude": -3.7119168856897677
  },
  "b3490977": {
    "location_name": "Movistar Arena (WiZink Center)",
    "address": "de Felipe II, s/n",
    "latitude": 40.4241371,
    "longitude": -3.6749756
  },
  "eec92048": {
    "location_name": "Cines Callao / Callao City Lights",
    "address": "de Callao, 3 y 4",
    "latitude": 40.4198287,
    "longitude": -3.7059223
  },
  "e5043ec3": {
    "location_name": "Teatro Muñoz Seca",
    "address": "del Carmen, 1",
    "latitude": 40.4184049,
    "longitude": -3.703234
  },
  "a887fc2c": {
    "location_name": "Capitol Gran Vía",
    "address": "Gran Vía, 41",
    "latitude": 40.4204502,
    "longitude": -3.7066308
  },
  "14115200": {
    "location_name": "Bululú 2120",
    "address": "de Canarias, 16",
    "latitude": 40.4019632,
    "longitude": -3.6964942
  },
  "dd26025d": {
    "location_name": "El Pasillo Verde Teatro",
    "address": "de la Esperanza, 23 - 25",
    "latitude": 40.4006906,
    "longitude": -3.7040473
  },
  "4869348f": {
    "location_name": "Teatro Serrano",
    "address": "de Serrano, 104",
    "latitude": 40.4342799,
    "longitude": -3.6862284
  },
  "877cdde6": {
    "location_name": "Biblioteca Regional de la Comunidad de Madrid Joaquín Leguina",
    "address": "de Ramírez de Prado, 3",
    "latitude": 40.3997348,
    "longitude": -3.6906652
  },
  "3fd83ca9": {
    "location_name": "Nave 10 Matadero (antes Naves del Español)",
    "address": "de la Chopera, 14",
    "latitude": 40.391820782642,
    "longitude": -3.697409033775
  },
  "3d0b3e9c": {
    "location_name": "Palacio de Santa Bárbara",
    "address": "de Hortaleza, 87",
    "latitude": 40.4263218,
    "longitude": -3.6971378
  },
  "95a62894": {
    "location_name": "Cineteca Madrid",
    "address": "PLAZA LEGAZPI 8",
    "district": "Arganzuela",
    "latitude": 40.39130985242181,
    "longitude": -3.6958028442054074
  },
  "ce1991f7": {
    "location_name": "Circuito de Madrid Jarama-RACE",
    "address": "A-1, km 28",
    "latitude": 40.616037374242,
    "longitude": -3.584032058716
  },
  "879fc20a": {
    "location_name": "Teatro Maravillas",
    "address": "de Manuela Malasaña, 6",
    "latitude": 40.428729102562,
    "longitude": -3.703240156174
  },
  "78f7394a": {
    "location_name": "Centro cultural Pilar Miró",
    "address": "Antonio María Segovia, s/n",
    "latitude": 40.3813807,
    "longitude": -3.6133904
  },
  "f8a954ec": {
    "location_name": "Teatro Tarambana",
    "address": "Dolores Armengot , 31",
    "latitude": 40.3857668,
    "longitude": -3.7432537
  },
  "0bd4bcd7": {
    "location_name": "Teatro Fígaro",
    "address": "del Doctor Cortezo, 5",
    "latitude": 40.413466,
    "longitude": -3.7036766
  },
  "12f732ab": {
    "location_name": "Artespacio Plot Point",
    "address": "de Ercilla, 29",
    "latitude": 40.401977082034,
    "longitude": -3.702038526535
  },
  "b57d1aec": {
    "location_name": "Sala Mirador",
    "address": "del Doctor Fourquet , 31",
    "latitude": 40.4070109,
    "longitude": -3.6988966
  },
  "7fa37397": {
    "location_name": "Campo de Fútbol Fernando Torres",
    "address": "Camino del Molino, s/n, 28942, Fuenlabrada"
  },
  "b1ac68ff": {
    "location_name": "Lab theClub",
    "address": "de Agustín de Foxa, s/n",
    "latitude": 40.473267231976,
    "longitude": -3.682130905285
  },
  "52a7cbaa": {
    "location_name": "Paseo de Recoletos",
    "address": "de Recoletos, s/n",
    "latitude": 40.4197774,
    "longitude": -3.6928866
  },
  "aaee85c7": {
    "location_name": "Sala Komodia",
    "address": "del General Palanca, 7",
    "latitude": 40.3995802,
    "longitude": -3.6989763
  },
  "2a793511": {
    "location_name": "Estadio Bernabéu",
    "address": "de Concha Espina, 1",
    "latitude": 40.4524318,
    "longitude": -3.6868084
  },
  "9b2ba2ac": {
    "location_name": "La Usina",
    "address": "de Palos de la Frontera, 4",
    "latitude": 40.4025525,
    "longitude": -3.6999978
  },
  "f9c4232a": {
    "location_name": "Teatro del Barrio",
    "address": "de Zurita, 20",
    "latitude": 40.4096362,
    "longitude": -3.6991806
  },
  "bd45b78f": {
    "location_name": "SOLO Independencia",
    "address": "de la Independencia, 5",
    "latitude": 40.4206267,
    "longitude": -3.6882458
  },
  "4ab76119": {
    "location_name": "Teatro de la Zarzuela",
    "address": "de Jovellanos, 4",
    "latitude": 40.417129,
    "longitude": -3.6973724
  },
  "027f0347": {
    "location_name": "Teatros del Canal",
    "address": "de Cea Bermúdez, 1",
    "latitude": 40.4382782,
    "longitude": -3.705182
  },
  "7a70b331": {
    "location_name": "Hipódromo de la Zarzuela",
    "address": "Padre Huidobro , s/n",
    "latitude": 40.467976085526,
    "longitude": -3.7562084198
  },
  "eb8b4a73": {
    "location_name": "Centro Danza Matadero - CDM",
    "address": "de la Chopera, 14",
    "latitude": 40.3923033,
    "longitude": -3.69743
  },
  "2ca44f0a": {
    "location_name": "Auditorio Nacional de Música",
    "address": "del Príncipe de Vergara, 146",
    "latitude": 40.45,
    "longitude": -3.68
  },
  "9a5be362": {
    "location_name": "Palacio Vistalegre Arena",
    "address": "de Utebo , 1",
    "latitude": 40.3862011,
    "longitude": -3.7379452
  },
  "71e56dd6": {
    "location_name": "Escuela Técnica Superior de Ingenieros Industriales de la Universidad Politécnica de Madrid",
    "address": "José Gutiérrez Abascal, 2",
    "latitude": 40.4404794,
    "longitude": -3.6899442
  },
  "a5caa848": {
    "location_name": "Centro Cultural Paco Rabal",
    "address": "de Felipe de Diego, 13",
    "latitude": 40.3794678,
    "longitude": -3.6612928
  },
  "b814f038": {
    "location_name": "Teatro Sanpol",
    "address": "de San Pol de Mar, 1",
    "latitude": 40.4239561,
    "longitude": -3.7266076
  },
  "4ff22a87": {
    "location_name": "Ciudad Real Madrid",
    "address": "de Fuerzas Armadas, 402",
    "latitude": 40.4817285,
    "longitude": -3.6112151
  },
  "e411800a": {
    "location_name": "Teatro Circo Price",
    "address": "de Atocha, 35",
    "latitude": 40.4059076,
    "longitude": -3.6985795
  },
  "c883cc1c": {
    "location_name": "Escenario Puerta del Ángel",
    "address": "del Embarcadero, Recinto Ferial de la Casa de Campo",
    "latitude": 40.416926850471,
    "longitude": -3.727669715881
  },
  "7aa33334": {
    "location_name": "Espacio Cultural Serrería Belga",
    "address": "CALLE ALAMEDA 15",
    "district": "Centro",
    "latitude": 40.4105673503608,
    "longitude": -3.6937819843413373
  },
  "a0e7ae45": {
    "location_name": "IFEMA Palacio Municipal",
    "address": "de la Capital de España, 7",
    "latitude": 40.4622632,
    "longitude": -3.6163537
  },
  "7e021704": {
    "location_name": "Estadio Municipal de Butarque",
    "address": "Arquitectura, s/n",
    "latitude": 40.3394716,
    "longitude": -3.7627478
  },
  "4b4d8238": {
    "location_name": "Teatro Pradillo",
    "address": "de Pradillo, 12",
    "latitude": 40.4485,
    "longitude": -3.6747226
  },
  "a39a77f1": {
    "location_name": "Teatro Lagrada",
    "address": "de Ercilla, 20",
    "latitude": 40.4026932,
    "longitude": -3.7029826
  },
  "57c2c3c5": {
    "location_name": "DT Espacio Escénico",
    "address": "de la Reina, 9",
    "latitude": 40.4205184,
    "longitude": -3.7002514
  },
  "e9776d8f": {
    "location_name": "Campo de Fútbol de Vallecas",
    "address": "del Payaso Fofó, s/n",
    "latitude": 40.3875992,
    "longitude": -3.6602826
  },
  "a84fbfe3": {
    "location_name": "Réplika Teatro",
    "address": "de la Explanada, 14",
    "latitude": 40.4482718,
    "longitude": -3.7116787
  },
  "8a79f191": {
    "location_name": "Movistar Academy Magariños",
    "address": "de Serrano, 129",
    "latitude": 40.44255,
    "longitude": -3.6862379
  },
  "2b9a4735": {
    "location_name": "Estadio Riyadh Air Metropolitano",
    "address": "de Luis Aragonés, s/n",
    "latitude": 40.436299422388,
    "longitude": -3.599481582642
  },
  "f12e906c": {
    "location_name": "Salesas Village",
    "address": "Calle Campoamor, Madrid"
  },
  "4f9ea209": {
    "location_name": "Centro Deportivo Alcalá de Henares",
    "address": "Gustavo Adolfo Bécquer, 64",
    "latitude": 40.5082938,
    "longitude": -3.3608554
  },
  "d0b9c3cf": {
    "location_name": "Coliseum",
    "address": "Teresa de Calcuta, s/n",
    "latitude": 40.325730691238,
    "longitude": -3.714945316315
  },
  "1fbee8ae": {
    "location_name": "Centro Cultural de China en Madrid",
    "address": "del General Pardiñas, 73",
    "latitude": 40.4340721,
    "longitude": -3.6783231
  },
  "9fe624dd": {
    "location_name": "Opera Gallery Madrid",
    "address": "de Serrano, 56",
    "latitude": 40.4285521,
    "longitude": -3.6870781
  },
  "5f8561c8": {
    "location_name": "El Sótano",
    "address": "de las Maldonadas, 6",
    "latitude": 40.4110041,
    "longitude": -3.70774
  },
  "4da9be7c": {
    "location_name": "Autocine Madrid",
    "address": "de la Isla de Java, 2",
    "latitude": 40.4868949,
    "longitude": -3.6779926
  },
  "13acb8c9": {
    "location_name": "Centro Cultural Casa de Vacas",
    "address": "de Colombia, 1",
    "latitude": 40.4190657,
    "longitude": -3.6840531
  },
  "525f2dd3": {
    "location_name": "Calle San Agustín, 11",
    "address": "Calle San Agustín, 11, 28014 Madrid"
  }
}