{
  "a298608a": {
    "location_name": "Centros de Mayores del distrito Centro"
  },
  "e240598f": {
    "location_name": "Centros de mayores de Vicálvaro"
  },
  "02e88678": {
    "location_name": "Centro de Educación Ambiental El Retiro",
    "address": "PASEO FERNAN NUÑEZ 2",
    "district": "Retiro",
    "latitude": 40.40943503279114,
    "longitude": -3.6861797800993257
  },
  "0b80dbd8": {
    "location_name": "Planetario de Madrid",
    "address": "AVENIDA PLANETARIO 16",
    "district": "Arganzuela",
    "latitude": 40.392279999540044,
    "longitude": -3.684956957448299
  },
  "63e95416": {
    "location_name": "Parque Cerro del Tío Pío",
    "address": "CALLE BENJAMIN PALENCIA 2",
    "district": "PuenteDeVallecas",
    "latitude": 40.39701982315709,
    "longitude": -3.655239797848888
  },
  "95a62894": {
    "location_name": "Cineteca Madrid",
    "address": "PLAZA LEGAZPI 8",
    "district": "Arganzuela",
    "latitude": 40.39130985242181,
    "longitude": -3.6958028442054074
  },
  "4608eac2": {
    "location_name": "CEIP Madrid Sur y CEIP Fray Junípero Serra"
  },
  "371ad9da": {
    "location_name": "Albergue Vera y Residencia Las Claras"
  },
  "bb29009c": {
    "location_name": "CentroCentro",
    "address": "PLAZA CIBELES 1",
    "district": "Retiro",
    "latitude": 40.41902261618159,
    "longitude": -3.692188193693138
  },
  "439b2cee": {
    "location_name": "Biblioteca Pública Municipal José Saramago (Fuencarral-El Pardo)",
    "address": "AVENIDA MONFORTE DE LEMOS 38",
    "district": "Fuencarral-ElPardo",
    "latitude": 40.47860087334554,
    "longitude": -3.7094408342979954
  },
  "5b0073c9": {
    "location_name": "Biblioteca Pública Municipal Iván de Vargas (Centro)",
    "address": "CALLE SAN JUSTO 5",
    "district": "Centro",
    "latitude": 40.41410290844665,
    "longitude": -3.7098591212735883
  },
  "af116271": {
    "location_name": "Quinta de la Fuente del Berro",
    "address": "CALLE ENRIQUE D'ALMONTE 1",
    "district": "Salamanca",
    "latitude": 40.42299730556785,
    "longitude": -3.6625213630031794
  },
  "e232e586": {
    "location_name": "Espacio de Igualdad María Zambrano. Chamberí",
    "address": "CALLE ANDRES MELLADO 44",
    "district": "Chamberi",
    "latitude": 40.433958260960964,
    "longitude": -3.7143358486689415
  },
  "1a7c6818": {
    "location_name": "Centro de Información y Educación Ambiental de Dehesa de la Villa",
    "address": "Parque Dehesa de la Villa, Madrid",
    "district": "Moncloa-Aravaca",
    "latitude": 40.45914104116349,
    "longitude": -3.718270563679269
  },
  "73b313ed": {
    "location_name": "Jardines de El Buen Retiro",
    "address": "PLAZA INDEPENDENCIA 7",
    "district": "Retiro",
    "latitude": 40.41964087412762,
    "longitude": -3.68793370943788
  },
  "b15919aa": {
    "location_name": "Parque de Aluche"
  },
  "76473c96": {
    "location_name": "Parque Forestal de Valdebernardo",
    "address": "Av. de la Democracia, 25, 28031 Madrid"
  },
  "7bbd9a86": {
    "location_name": "Parque del Oeste"
  },
  "c5495751": {
    "location_name": "Legazpi"
  },
  "398d56b6": {
    "location_name": "Centro Intergeneracional Río Esmeralda",
    "address": "CALLE RIO ESMERALDA 15",
    "district": "PuenteDeVallecas",
    "latitude": 40.382903228859135,
    "longitude": -3.6520658390631127
  },
  "f14ce3db": {
    "location_name": "Espacio de Igualdad Carme Chacón. Hortaleza",
    "address": "CALLE MATAPOZUELOS 2",
    "district": "Hortaleza",
    "latitude": 40.46155641637237,
    "longitude": -3.6501714580414126
  },
  "c9c45e0d": {
    "location_name": "Fernán Gómez Centro Cultural de la Villa",
    "address": "PLAZA COLON 4",
    "district": "Salamanca",
    "latitude": 40.4249721516942,
    "longitude": -3.689948085098791
  },
  "b1f7c00c": {
    "location_name": "Teatro Español",
    "address": "CALLE PRINCIPE 25",
    "district": "Centro",
    "latitude": 40.414828532240946,
    "longitude": -3.700164949543688
  },
  "22840c10": {
    "location_name": "Espacio de Igualdad Lucrecia Pérez. Fuencarral-El Pardo",
    "address": "CALLE MANRESA 1",
    "district": "Fuencarral-ElPardo",
    "latitude": 40.49120609425076,
    "longitude": -3.6916379633219116
  },
  "38e0e792": {
    "location_name": "Casa del Lector (Matadero)",
    "address": "de la Chopera, 14",
    "latitude": 40.3923033,
    "longitude": -3.69743
  },
  "e411800a": {
    "location_name": "Teatro Circo Price",
    "address": "RONDA ATOCHA 35",
    "district": "Arganzuela",
    "latitude": 40.40596936645757,
    "longitude": -3.698589986849812
  },
  "74ef50ff": {
    "location_name": "El Capricho de la Alameda Osuna",
    "address": "PASEO ALAMEDA DE OSUNA 25",
    "district": "Barajas",
    "latitude": 40.45446361509569,
    "longitude": -3.6000964360303476
  },
  "7e673f1f": {
    "location_name": "Parque Emperatriz María de Austria",
    "address": "CALLE VIA LUSITANA 3",
    "district": "Carabanchel",
    "latitude": 40.382311100280766,
    "longitude": -3.7227552919050586
  },
  "53979c9c": {
    "location_name": "Parque Enrique Tierno Galván",
    "address": "CALLE MENESES 4",
    "district": "Arganzuela",
    "latitude": 40.39210151448589,
    "longitude": -3.681620654746187
  },
  "f754924c": {
    "location_name": "Biblioteca Pública Municipal Manuel Vázquez Montalbán (Tetuán)",
    "address": "CALLE FRANCOS RODRIGUEZ 67",
    "district": "Tetuan",
    "latitude": 40.45749513485957,
    "longitude": -3.710539712535917
  },
  "afd6d1f5": {
    "location_name": "Museo de Arte Contemporáneo de Madrid",
    "address": "CALLE CONDE DUQUE 9",
    "district": "Centro",
    "latitude": 40.42739911262292,
    "longitude": -3.710589286287491
  },
  "5989b7b0": {
    "location_name": "Museo ABC",
    "address": "de Amaniel, 29",
    "latitude": 40.4281043,
    "longitude": -3.7097008
  },
  "f2b4174f": {
    "location_name": "Instalación Deportiva Municipal Básica Parque El Calero",
    "address": "CALLE VIRGEN DE NURIA 4",
    "district": "CiudadLineal",
    "latitude": 40.43580006579458,
    "longitude": -3.6532953172963816
  },
  "65a790aa": {
    "location_name": "Espacio de Igualdad Berta Cáceres. Usera",
    "address": "CALLE GRAN AVENIDA 14",
    "district": "Usera",
    "latitude": 40.36902428128397,
    "longitude": -3.710212677306876
  },
  "868d318d": {
    "location_name": "Parque de Berlín",
    "address": "AVENIDA RAMON Y CAJAL 2",
    "district": "Chamartin",
    "latitude": 40.45150372849227,
    "longitude": -3.6760645355093797
  },
  "f616b9eb": {
    "location_name": "Instalación Deportiva Municipal Básica Los Rosales I",
    "address": "AVENIDA LOS ROSALES 131",
    "district": "Villaverde",
    "latitude": 40.35175390495651,
    "longitude": -3.677834634453844
  },
  "bae04585": {
    "location_name": "Parque Juan Carlos I",
    "address": "GLORIETA S.A.R. DON JUAN DE BORBON Y BATTEMBERG, 5 5",
    "district": "Barajas",
    "latitude": 40.45999848510341,
    "longitude": -3.6148888706303586
  },
  "1fc654e8": {
    "location_name": "Planta de transformación de residuos vegetales de Migas Calientes",
    "address": "AUTOVIA M-30 2200",
    "district": "Moncloa-Aravaca",
    "latitude": 40.445355536117184,
    "longitude": -3.7399742609916697
  },
  "63c0a6a0": {
    "location_name": "Centro Sociocultural Teresa de Calcuta (Barajas)",
    "address": "PLAZA NAVIO 4",
    "district": "Barajas",
    "latitude": 40.455320740232835,
    "longitude": -3.5876301858469386
  },
  "b07ca42a": {
    "location_name": "Centro Cultural Gloria Fuertes (Barajas)",
    "address": "AVENIDA LOGROÑO 179",
    "district": "Barajas",
    "latitude": 40.4606308732073,
    "longitude": -3.59366944150524
  },
  "dae5bf11": {
    "location_name": "Parque Quinta de los Molinos",
    "address": "CALLE ALCALA 527",
    "district": "SanBlas-Canillejas",
    "latitude": 40.44245748722783,
    "longitude": -3.6217095632137375
  },
  "d40f267f": {
    "location_name": "Matadero Medialab",
    "address": "PASEO CHOPERA 14",
    "district": "Arganzuela",
    "latitude": 40.39245798191536,
    "longitude": -3.6972067902718897
  },
  "4710abd1": {
    "location_name": "Centro Cultural Galileo (Chamberí)",
    "address": "CALLE GALILEO 39",
    "district": "Chamberi",
    "latitude": 40.433719454283505,
    "longitude": -3.7104468992841753
  },
  "0402c527": {
    "location_name": "Aula ambiental La Cabaña del Retiro",
    "address": "PASEO FERNAN NUÑEZ 10",
    "district": "Retiro",
    "latitude": 40.40912277790706,
    "longitude": -3.6793179644920584
  },
  "5e4b8cb1": {
    "location_name": "Centro Sociocultural Juvenil de Moratalaz",
    "address": "CALLE FUENTE CARRANTONA 10",
    "district": "Moratalaz",
    "latitude": 40.39928542551079,
    "longitude": -3.636600379403484
  },
  "dbc8993b": {
    "location_name": "Parque Eva Duarte",
    "address": "CALLE DOCTOR GOMEZ ULLA 9",
    "district": "Salamanca",
    "latitude": 40.42985671996897,
    "longitude": -3.668031432543624
  },
  "5920ebfe": {
    "location_name": "Auditorio Municipal Las Trece Rosas",
    "address": "CALLE MONTE DE MONTJUICH 7",
    "district": "VillaDeVallecas",
    "latitude": 40.38024953878224,
    "longitude": -3.6175290483217055
  },
  "9335e955": {
    "location_name": "Centro de Educación Ambiental y Cultural Maris Stella (Usera)",
    "address": "CALLE DOCTOR TOLOSA LATOUR 16",
    "district": "Usera",
    "latitude": 40.374166248648216,
    "longitude": -3.7032220308808577
  },
  "02a50fe5": {
    "location_name": "Colegio Público República de Venezuela",
    "address": "CALLE CERECINOS 8",
    "district": "Usera",
    "latitude": 40.38358402272625,
    "longitude": -3.713626711959121
  },
  "b8894eca": {
    "location_name": "Colegio Público Plácido Domingo",
    "address": "CALLE TEJO 5",
    "district": "Arganzuela",
    "latitude": 40.39744510759389,
    "longitude": -3.678351566632272
  },
  "fdc5567c": {
    "location_name": "Centro Sociocultural Alberto Sánchez (Puente de Vallecas)",
    "address": "CALLE RISCO DE PELOCHE 14",
    "district": "PuenteDeVallecas",
    "latitude": 40.393619022093546,
    "longitude": -3.6556016835101834
  },
  "ebf96d4f": {
    "location_name": "Centro Cultural Quinta del Berro - Rafael Altamira (Salamanca)",
    "address": "CALLE ENRIQUE D'ALMONTE 1",
    "district": "Salamanca",
    "latitude": 40.42206923419431,
    "longitude": -3.6629608041639368
  },
  "a08b657f": {
    "location_name": "Colegio Público Arquitecto Gaudí",
    "address": "CALLE ROSA JARDON 10",
    "district": "Chamartin",
    "latitude": 40.46541828100197,
    "longitude": -3.669067772820547
  },
  "f37c6e85": {
    "location_name": "Teatro Municipal de Títeres. Parque de El Retiro",
    "address": "AVENIDA MÉXICO 4",
    "district": "Retiro",
    "latitude": 40.41878362561595,
    "longitude": -3.6866519471003647
  },
  "02b25093": {
    "location_name": "Centro de Información y Educación Ambiental de Casa de Campo",
    "address": "PARQUE CASA DE CAMPO (JUNTO AL EMBARCADERO DEL LAGO)",
    "district": "Moncloa-Aravaca",
    "latitude": 40.41789950036311,
    "longitude": -3.7309390858931137
  },
  "13acb8c9": {
    "location_name": "Centro Cultural Casa de Vacas (Retiro)",
    "address": "PASEO COLOMBIA 1",
    "district": "Retiro",
    "latitude": 40.41906571939961,
    "longitude": -3.684053112760816
  },
  "c3355e2c": {
    "location_name": "Centro Cultural Buenavista (Salamanca)",
    "address": "AVENIDA TOREROS 5",
    "district": "Salamanca",
    "latitude": 40.43200001609297,
    "longitude": -3.670904677285496
  },
  "dbe08552": {
    "location_name": "Centro Cultural Auditorio Parque El Paraíso (San Blas - Canillejas)",
    "address": "AVENIDA ARCENTALES 4",
    "district": "SanBlas-Canillejas",
    "latitude": 40.42997621103139,
    "longitude": -3.6221773579444596
  },
  "a2273ec8": {
    "location_name": "Parque Roma",
    "address": "CALLE JUAN ESPLANDIU 4",
    "district": "Retiro",
    "latitude": 40.41641041087398,
    "longitude": -3.662606100328213
  },
  "a2e904a5": {
    "location_name": "Nave de Terneras del Centro Cultural Casa del Reloj",
    "address": "PASEO CHOPERA 10",
    "district": "Arganzuela",
    "latitude": 40.39307289237465,
    "longitude": -3.699005654074825
  },
  "e2457581": {
    "location_name": "Biblioteca Musical Víctor Espinós",
    "address": "CALLE CONDE DUQUE 9",
    "district": "Centro",
    "latitude": 40.42737760210632,
    "longitude": -3.7106116887809817
  },
  "4ec30898": {
    "location_name": "Centro Cultural Las Californias (Retiro)",
    "address": "CALLE LUIS PEIDRO 2",
    "district": "Retiro",
    "latitude": 40.397021560779024,
    "longitude": -3.6738766514153163
  },
  "303984c9": {
    "location_name": "Museo de Historia de Madrid",
    "address": "CALLE FUENCARRAL 78",
    "district": "Centro",
    "latitude": 40.42577054821346,
    "longitude": -3.700845660719608
  },
  "b2aea691": {
    "location_name": "Biblioteca Pública Municipal Ángel González (Latina)",
    "address": "CALLE GRANJA DE TORREHERMOSA 1",
    "district": "Latina",
    "latitude": 40.397074625115906,
    "longitude": -3.7664885474841556
  },
  "2f1901fb": {
    "location_name": "Colegio Público Ciudad de Zaragoza",
    "address": "CALLE MANUEL AGUILAR MUÑOZ 1",
    "district": "Barajas",
    "latitude": 40.460302151327085,
    "longitude": -3.5912198696737083
  },
  "a7eb6f63": {
    "location_name": "Biblioteca Pública Municipal San Fermín (Usera)",
    "address": "AVENIDA SAN FERMIN 10",
    "district": "Usera",
    "latitude": 40.3711623444796,
    "longitude": -3.692742821990015
  },
  "d75ccb20": {
    "location_name": "Colegio Público Pío XII",
    "address": "CALLE DELFIN 2",
    "district": "Tetuan",
    "latitude": 40.46693859499291,
    "longitude": -3.693889291907082
  },
  "1b4b08af": {
    "location_name": "Espacio de Igualdad Clara Campoamor. Villaverde",
    "address": "CALLE MARIA MARTINEZ OVIOL 12",
    "district": "Villaverde",
    "latitude": 40.35087114162283,
    "longitude": -3.691508909255186
  },
  "cf403d6c": {
    "location_name": "Centro Sociocultural Marconi (Villaverde)",
    "address": "ACCESO COLONIA MARCONI 4",
    "district": "Villaverde",
    "latitude": 40.3347558542528,
    "longitude": -3.7008037217338274
  },
  "4f409aab": {
    "location_name": "Salón y sala de exposiciones en Junta Municipal de Usera",
    "address": "AVENIDA RAFAELA YBARRA 41",
    "district": "Usera",
    "latitude": 40.3823867401053,
    "longitude": -3.710861696949648
  },
  "bc9e186b": {
    "location_name": "Centro Cultural Emilia Pardo Bazán (Salamanca)",
    "address": "CALLE GOYA 1",
    "district": "Salamanca",
    "latitude": 40.42585800515975,
    "longitude": -3.689601594290468
  },
  "7d1896a5": {
    "location_name": "Jardines de la Plaza de Chamberí",
    "address": "PLAZA CHAMBERI 1",
    "district": "Chamberi",
    "latitude": 40.43285328749453,
    "longitude": -3.697594475998512
  },
  "c7a556cc": {
    "location_name": "Centro Deportivo Municipal Cea Bermúdez",
    "address": "CALLE CEA BERMUDEZ 3",
    "district": "Chamberi",
    "latitude": 40.43857964605446,
    "longitude": -3.706107413184514
  },
  "7f7d0281": {
    "location_name": "Centro Deportivo Municipal Estadio de Atletismo Vallehermoso (Dirección General de Deporte)",
    "address": "CALLE MELQUIADES ALVAREZ 10",
    "district": "Chamberi",
    "latitude": 40.441913031255396,
    "longitude": -3.710700237505622
  },
  "127a1864": {
    "location_name": "Centro Cultural La Vaguada (Fuencarral - El Pardo)",
    "address": "AVENIDA MONFORTE DE LEMOS 38",
    "district": "Fuencarral-ElPardo",
    "latitude": 40.47900813206291,
    "longitude": -3.709138377702435
  },
  "f799769f": {
    "location_name": "Centro Cultural Eduardo Úrculo (Tetuán)",
    "address": "PLAZA DONOSO 5",
    "district": "Tetuan",
    "latitude": 40.46900764611639,
    "longitude": -3.697595691925329
  },
  "ccc906e4": {
    "location_name": "Auditorio y sala de exposiciones Paco de Lucía (Latina)",
    "address": "AVENIDA LAS AGUILAS 2",
    "district": "Latina",
    "latitude": 40.38493929920335,
    "longitude": -3.7641963952601154
  },
  "a7513d9e": {
    "location_name": "Centro de Servicios Sociales San Diego",
    "address": "CALLE JAVIER DE MIGUEL 10",
    "district": "PuenteDeVallecas",
    "latitude": 40.38871930363662,
    "longitude": -3.663689575700872
  },
  "c4d94593": {
    "location_name": "Centro Cultural Ciudad Pegaso (San Blas - Canillejas)",
    "address": "AVENIDA SEPTIMA 11",
    "district": "SanBlas-Canillejas",
    "latitude": 40.44844757572015,
    "longitude": -3.598099871155595
  },
  "7e7b6ac7": {
    "location_name": "Auditorio al aire libre. Parque Cerro Almodóvar",
    "address": "CALLE MARCELINO CASTILLO 29",
    "district": "Latina",
    "latitude": 40.39420802732146,
    "longitude": -3.744692836307442
  },
  "4975b7d7": {
    "location_name": "Parque Alfredo Kraus",
    "address": "CALLE MAR ADRIATICO 5",
    "district": "Hortaleza",
    "latitude": 40.47098300036034,
    "longitude": -3.6393251567222045
  },
  "1a009f5e": {
    "location_name": "Plaza de Daoíz y Velarde",
    "address": "PLAZA DAOIZ Y VELARDE 2",
    "district": "Retiro",
    "latitude": 40.402190438836826,
    "longitude": -3.6772826298329093
  },
  "83d70b16": {
    "location_name": "Parque de Villa Rosa-Paco Caño",
    "address": "CALLE ACONCAGUA 2",
    "district": "Hortaleza",
    "latitude": 40.468674190501815,
    "longitude": -3.631588640594873
  },
  "db46a17d": {
    "location_name": "Parque de Las Cruces",
    "address": "AVENIDA POBLADOS 74",
    "district": "Carabanchel",
    "latitude": 40.37746689917427,
    "longitude": -3.7547689345277977
  },
  "6dd5948c": {
    "location_name": "Parque Huerta de la Salud",
    "address": "CALLE MAR DE LAS ANTILLAS 8",
    "district": "Hortaleza"
  },
  "c6c5db82": {
    "location_name": "Centro Cultural Sanchinarro - Hispanidad (Hortaleza)",
    "address": "CALLE PRINCESA DE EBOLI 29",
    "district": "Hortaleza",
    "latitude": 40.49042200599307,
    "longitude": -3.6553467891079854
  },
  "97e16db3": {
    "location_name": "Parque de don David Pérez y don Miguel Ángel González",
    "address": "CALLE DIONISIO INCA YUPANQUI 8",
    "district": "Hortaleza",
    "latitude": 40.461621132349094,
    "longitude": -3.6281020785174873
  },
  "1d11f16a": {
    "location_name": "Biblioteca Pública Municipal María Lejárraga (Hortaleza)",
    "address": "CALLE PRINCESA DE EBOLI 29",
    "district": "Hortaleza",
    "latitude": 40.49041562546542,
    "longitude": -3.655356751728003
  },
  "c5ebc021": {
    "location_name": "Auditorio al aire libre. Centro Cultural el Pozo",
    "address": "CALLE ANDALUCES DEL POZO 1",
    "district": "PuenteDeVallecas",
    "latitude": 40.372062320145766,
    "longitude": -3.66075779238216
  },
  "31352bed": {
    "location_name": "Imprenta Municipal. Artes del libro",
    "address": "CALLE CONCEPCION JERONIMA 15",
    "district": "Centro",
    "latitude": 40.413896825498995,
    "longitude": -3.7054692169323364
  },
  "5435f959": {
    "location_name": "Centro Sociocultural Santa Petronila (Villaverde)",
    "address": "CALLE MARIA MARTINEZ OVIOL 12",
    "district": "Villaverde",
    "latitude": 40.350886994103284,
    "longitude": -3.6914981254409645
  },
  "77b83e41": {
    "location_name": "Parque Santa Eugenia",
    "address": "CALLE Puentelarra 13",
    "district": "VillaDeVallecas",
    "latitude": 40.38131130575197,
    "longitude": -3.608459149580722
  },
  "8d347f8b": {
    "location_name": "Quinta de Torre Arias",
    "address": "CALLE ALCALA 551",
    "district": "SanBlas-Canillejas",
    "latitude": 40.443385945708435,
    "longitude": -3.6182513751654133
  },
  "a2cd4cc7": {
    "location_name": "Parque Tecnológico Valdemingómez",
    "address": "CARRETERA VALDEMINGOMEZ 201",
    "district": "VillaDeVallecas",
    "latitude": 40.337870856032524,
    "longitude": -3.5813821771569554
  },
  "e818a933": {
    "location_name": "Auditorio al aire libre. Parque Aluche",
    "address": "CALLE ILLESCAS 149",
    "district": "Latina",
    "latitude": 40.392680212409495,
    "longitude": -3.7593572957930554
  },
  "1c1352bf": {
    "location_name": "Biblioteca Pública Municipal David Gistau (Salamanca)",
    "address": "AVENIDA TOREROS 5",
    "district": "Salamanca",
    "latitude": 40.43199309720514,
    "longitude": -3.670929243543714
  },
  "97507349": {
    "location_name": "Biblioteca Pública Municipal Mario Vargas Llosa (Centro)",
    "address": "CALLE BARCELO 4",
    "district": "Centro",
    "latitude": 40.426642215368176,
    "longitude": -3.699722994908341
  },
  "a99cbc39": {
    "location_name": "Instalación Deportiva Municipal Básica Torrespaña (Fuente del Berro)",
    "address": "CALLE ALCALDE SAINZ DE BARANDA 94",
    "district": "Salamanca",
    "latitude": 40.42121783502117,
    "longitude": -3.6607653462118437
  },
  "57f49789": {
    "location_name": "Biblioteca Pública Municipal José Hierro (San Blas-Canillejas)",
    "address": "CALLE MARIA SEVILLA DIAGO 15",
    "district": "SanBlas-Canillejas",
    "latitude": 40.433291625973624,
    "longitude": -3.6105662311927453
  },
  "75f92d7a": {
    "location_name": "Cementerio de Nuestra Señora de la Almudena",
    "address": "AVENIDA DAROCA 90",
    "district": "CiudadLineal",
    "latitude": 40.431386380971894,
    "longitude": -3.6590535229397676
  },
  "2a930101": {
    "location_name": "Espacio de Igualdad Ana Orantes. Barajas",
    "address": "CALLE PLAYA DE SAN JUAN 6",
    "district": "Barajas",
    "latitude": 40.473659104975354,
    "longitude": -3.592395079190456
  },
  "9c07c98c": {
    "location_name": "Espacio Cultural Núñez de Balboa, 40 (Salamanca)",
    "address": "CALLE NUÑEZ DE BALBOA 40",
    "district": "Salamanca",
    "latitude": 40.426826159507435,
    "longitude": -3.6825349481985135
  },
  "e21dd741": {
    "location_name": "Templete 'José Menese'",
    "address": "PLAZA HUARTE DE SAN JUAN 1",
    "district": "Latina",
    "latitude": 40.412941426753434,
    "longitude": -3.725711256326908
  },
  "0d332ccb": {
    "location_name": "Museo de San Isidro. Los Orígenes de Madrid",
    "address": "PLAZA SAN ANDRES 2",
    "district": "Centro",
    "latitude": 40.41207900253883,
    "longitude": -3.7108161027466378
  },
  "12355570": {
    "location_name": "Biblioteca Pública Municipal Eugenio Trías. Casa de Fieras de El Retiro (Retiro)",
    "address": "PASEO FERNÁN NÚÑEZ 24",
    "district": "Retiro",
    "latitude": 40.4166091081099,
    "longitude": -3.6795930368034804
  },
  "4c65808b": {
    "location_name": "Parque Este de Valdebernardo",
    "address": "AVENIDA DEMOCRACIA 25",
    "district": "Vicalvaro",
    "latitude": 40.393429973468265,
    "longitude": -3.6183833916362733
  },
  "2280f84e": {
    "location_name": "Centro Cultural Puerta de Toledo (Centro)",
    "address": "AVENIDA GRAN VIA DE SAN FRANCISCO 2",
    "district": "Centro",
    "latitude": 40.40741060830642,
    "longitude": -3.7119168856897677
  },
  "aa25e685": {
    "location_name": "Centro Cultural Fuente de San Pedro - Valderrivas (Vicálvaro)",
    "address": "CALLE TITANIO 5",
    "district": "Vicalvaro",
    "latitude": 40.40218085880392,
    "longitude": -3.60141148450391
  },
  "be0f5543": {
    "location_name": "Templete del Parque del Retiro",
    "address": "PLAZA MAESTRO VILLA 1",
    "district": "Retiro",
    "latitude": 40.41941736281525,
    "longitude": -3.6850082736557983
  },
  "6ba590e1": {
    "location_name": "Espacio de Igualdad Gloria Fuertes. Vicálvaro",
    "address": "CALLE CALAHORRA 11",
    "district": "Vicalvaro",
    "latitude": 40.4068543436,
    "longitude": -3.612732759798518
  },
  "314b42da": {
    "location_name": "Espacio de Igualdad María de Maeztu. Latina",
    "address": "CALLE MARCELINO CASTILLO 29",
    "district": "Latina",
    "latitude": 40.39420907754556,
    "longitude": -3.744687315765447
  },
  "ff4b611f": {
    "location_name": "Centro Sociocultural Tetuán",
    "address": "CALLE BRAVO MURILLO 251",
    "district": "Tetuan",
    "latitude": 40.45907909580629,
    "longitude": -3.7002532146213043
  },
  "fef6f71f": {
    "location_name": "Jardín del Bulevar de Peña Gorbea",
    "address": "CALLE PEÑA GORBEA 17",
    "district": "PuenteDeVallecas",
    "latitude": 40.3957812018463,
    "longitude": -3.6670346724676173
  },
  "a172fa00": {
    "location_name": "Centro Sociocultural Montecarmelo (Fuencarral - El Pardo)",
    "address": "Carretera M-607 Km 13 L-10",
    "district": "Fuencarral-ElPardo",
    "latitude": 40.515712291624084,
    "longitude": -3.6860532895354448
  },
  "212de84d": {
    "location_name": "Espacio de Igualdad Elena Arnedo Soriano. Retiro",
    "address": "CALLE ARREGUI Y ARUEJ 31",
    "district": "Retiro",
    "latitude": 40.40254931370529,
    "longitude": -3.668092320219012
  },
  "7fb097ff": {
    "location_name": "Espacio de Igualdad María Telo. Moratalaz",
    "address": "CALLE CAMINO DE LOS VINATEROS 51",
    "district": "Moratalaz",
    "latitude": 40.41087442118042,
    "longitude": -3.6538891267077664
  },
  "7c1958bc": {
    "location_name": "Edificio Sociocultural Marta Escudero Díaz-Tejeiro (Villaverde)",
    "address": "CALLE CALCIO 1",
    "district": "Villaverde",
    "latitude": 40.35118703272002,
    "longitude": -3.679345889376551
  },
  "5651c399": {
    "location_name": "Centro Sociocultural José de Espronceda (Tetuán)",
    "address": "CALLE ALMANSA 9",
    "district": "Tetuan",
    "latitude": 40.44864332758775,
    "longitude": -3.704513191828797
  },
  "9b3eae76": {
    "location_name": "Espacio de Igualdad Dulce Chacón. Villaverde",
    "address": "CALLE TORDEGRILLOS 32",
    "district": "Villaverde",
    "latitude": 40.344107374451525,
    "longitude": -3.7166081132911537
  },
  "1a630411": {
    "location_name": "Espacio de Igualdad Lourdes Hernández. Carabanchel",
    "address": "CALLE COMANDANTE FONTANES 8",
    "district": "Carabanchel",
    "latitude": 40.395326406887946,
    "longitude": -3.721622686264932
  },
  "32296fa0": {
    "location_name": "Espacio de Igualdad María Moliner. Villa de Vallecas",
    "address": "CALLE HONRUBIA 4",
    "district": "VillaDeVallecas",
    "latitude": 40.37128211425518,
    "longitude": -3.6292460351699867
  },
  "b4d499b0": {
    "location_name": "Centro Cultural Daoíz y Velarde",
    "address": "de Daoíz y Velarde, 4",
    "latitude": 40.4015359,
    "longitude": -3.6773107
  },
  "622c74d4": {
    "location_name": "Fundación Canal Sala Castellana 214",
    "address": "de la Castellana, 214",
    "latitude": 40.463602,
    "longitude": -3.688925
  },
  "79932781": {
    "location_name": "Filmoteca Española",
    "address": "de la Magdalena, 10",
    "latitude": 40.412287059178,
    "longitude": -3.702210187912
  },
  "1e352ee3": {
    "location_name": "COAM",
    "address": "de Hortaleza, 63",
    "latitude": 40.4240359,
    "longitude": -3.698986
  },
  "31e63917": {
    "location_name": "La Casa Encendida",
    "address": "de Valencia, 2",
    "latitude": 40.4060622,
    "longitude": -3.6999668
  },
  "ea3477e5": {
    "location_name": "Palacio de Cristal",
    "address": "de República de Cuba, 4",
    "latitude": 40.4136275,
    "longitude": -3.6820393
  },
  "6b08727e": {
    "location_name": "Nuevo Teatro Alcalá",
    "address": "de Jorge Juan, 62",
    "latitude": 40.423395884533,
    "longitude": -3.678274154663
  },
  "e28cdcb5": {
    "location_name": "Teatro Apolo",
    "address": "de Tirso de Molina, 1",
    "latitude": 40.4123371,
    "longitude": -3.7033164
  },
  "c7782429": {
    "location_name": "Museo Nacional de Antropología",
    "address": "de Alfonso XII, 68",
    "latitude": 40.4077713,
    "longitude": -3.6890236
  },
  "df925a11": {
    "location_name": "Museo Arqueológico Nacional",
    "address": "de Serrano, 13",
    "latitude": 40.4234939,
    "longitude": -3.6889607
  },
  "a39f00f6": {
    "location_name": "Palacio de Liria",
    "address": "de la Princesa, 20",
    "latitude": 40.427732729479,
    "longitude": -3.712424039841
  },
  "8fbe5662": {
    "location_name": "Centro de Arte Dos de Mayo (CA2M) / Móstoles",
    "address": "de la Constitución , 23",
    "latitude": 40.324707,
    "longitude": -3.863246
  },
  "e2c2b499": {
    "location_name": "Hipódromo de la Zarzuela",
    "address": "Padre Huidobro , s/n",
    "latitude": 40.467976085526,
    "longitude": -3.7562084198
  },
  "0e7756d3": {
    "location_name": "Museo del Ferrocarril",
    "address": "de las Delicias, 61",
    "latitude": 40.398749783694,
    "longitude": -3.691465258598
  },
  "7fb49dd2": {
    "location_name": "Pequeño Teatro Gran Vía",
    "address": "Gran Vía, 66",
    "latitude": 40.422430061313,
    "longitude": -3.708958625794
  },
  "305c5b59": {
    "location_name": "Escuela Superior de Ingenieros de Minas",
    "address": "Rios Rosas, 21",
    "latitude": 40.4420396,
    "longitude": -3.7005144
  },
  "529045ed": {
    "location_name": "Teatro Lara",
    "address": "Baja de San Pablo, 15",
    "latitude": 40.4220989,
    "longitude": -3.7044511
  },
  "f23f45f9": {
    "location_name": "Teatro Muñoz Seca",
    "address": "del Carmen, 1",
    "latitude": 40.4184049,
    "longitude": -3.703234
  },
  "2fd09bb6": {
    "location_name": "Museo Reina Sofía",
    "address": "de Santa Isabel, 52",
    "latitude": 40.4079189,
    "longitude": -3.6945566
  },
  "bd45b78f": {
    "location_name": "SOLO Independencia",
    "address": "de la Independencia, 5",
    "latitude": 40.4206267,
    "longitude": -3.6882458
  },
  "313506e8": {
    "location_name": "Barrio de las Letras",
    "address": "Santa Ana, s/n",
    "latitude": 40.4147025,
    "longitude": -3.7008389
  },
  "e9c8b9e8": {
    "location_name": "Nomad Museo Inmersivo",
    "address": "Gran Vía, 78",
    "latitude": 40.4235445,
    "longitude": -3.7096594
  },
  "2cbd1ab4": {
    "location_name": "Sala Canal de Isabel II de la Comunidad de Madrid",
    "address": "de Santa Engracia, 125",
    "latitude": 40.4392262,
    "longitude": -3.7008285
  },
  "6e65cecf": {
    "location_name": "Teatros Luchana",
    "address": "de Luchana, 38",
    "latitude": 40.4318433,
    "longitude": -3.6981038
  },
  "6249eafd": {
    "location_name": "Galería de las Colecciones Reales",
    "address": "de Bailén, 8",
    "latitude": 40.4159416,
    "longitude": -3.7150162
  },
  "20f77603": {
    "location_name": "Museo Nacional Thyssen-Bornemisza",
    "address": "del Prado, 8",
    "latitude": 40.4160406,
    "longitude": -3.6949254
  },
  "fc2a84be": {
    "location_name": "Teatro Fígaro",
    "address": "del Doctor Cortezo, 5",
    "latitude": 40.413466,
    "longitude": -3.7036766
  },
  "f7e9c29a": {
    "location_name": "Plaza Mayor de Madrid",
    "address": "Mayor",
    "latitude": 40.415513708485,
    "longitude": -3.707402944565
  },
  "f8afdb46": {
    "location_name": "Teatro Soho Madrid",
    "address": "de España, 6, 1 planta",
    "latitude": 40.4226029,
    "longitude": -3.7119024
  },
  "5b0ad2a4": {
    "location_name": "Real Academia de Medicina",
    "address": "de Arrieta, 12",
    "latitude": 40.4193745,
    "longitude": -3.7107696
  },
  "8c5e05a1": {
    "location_name": "Teatro Infanta Isabel",
    "address": "del Barquillo, 24",
    "latitude": 40.422252413672,
    "longitude": -3.695547580719
  },
  "044f7fc6": {
    "location_name": "Gran Teatro CaixaBank Príncipe Pío",
    "address": "de San Vicente, 44",
    "latitude": 40.420888390866,
    "longitude": -3.718807697296
  },
  "296a3885": {
    "location_name": "AC Recoletos",
    "address": "Recoletos, 18",
    "latitude": 40.4213839,
    "longitude": -3.6895429
  },
  "e1c956b1": {
    "location_name": "Fundación María Cristina Masaveu Peterson",
    "address": "de Alcalá Galiano, 6",
    "latitude": 40.426665,
    "longitude": -3.6914466
  },
  "65f0f805": {
    "location_name": "SOLO CSV",
    "address": "de San Vicente, 36",
    "latitude": 40.4204973,
    "longitude": -3.717292
  },
  "5e67a282": {
    "location_name": "Fundación Canal. Sala Mateo Inurria",
    "address": "de Mateo Inurria, 2",
    "latitude": 40.4659647,
    "longitude": -3.6880118
  },
  "3c29714c": {
    "location_name": "CaixaForum Madrid",
    "address": "del Prado, 36",
    "latitude": 40.4111951,
    "longitude": -3.693625
  },
  "ed301dfc": {
    "location_name": "IFEMA MADRID",
    "address": "del Partenón, 5",
    "latitude": 40.465157240748,
    "longitude": -3.616549993517
  },
  "58d00754": {
    "location_name": "Museo de América",
    "address": "de los Reyes Católicos, 6",
    "latitude": 40.4383749,
    "longitude": -3.721297
  },
  "7aeba039": {
    "location_name": "Centro Nacional de Golf",
    "address": "del Arroyo del Monte, 5",
    "latitude": 40.4855082,
    "longitude": -3.735279
  },
  "879fc20a": {
    "location_name": "Teatro Maravillas",
    "address": "de Manuela Malasaña, 6",
    "latitude": 40.428729102562,
    "longitude": -3.703240156174
  },
  "ae68c123": {
    "location_name": "Estación de Madrid - Chamartín - Clara Campoamor",
    "address": "Agustín de Foxa, s/n",
    "latitude": 40.471827591892,
    "longitude": -3.682526214322
  },
  "aee0de0c": {
    "location_name": "Abya",
    "address": "de José Ortega y Gasset, 32",
    "latitude": 40.4299625,
    "longitude": -3.681306
  },
  "4549d7e6": {
    "location_name": "Recinto Ferial Casa de Campo",
    "address": "de Portugal, s/n",
    "latitude": 40.411306780645,
    "longitude": -3.739085197449
  },
  "54913fe0": {
    "location_name": "Museo del Prado",
    "address": "del Prado, s/n",
    "latitude": 40.41381,
    "longitude": -3.692524
  },
  "5cb800a8": {
    "location_name": "Movistar Academy Magariños",
    "address": "de Serrano, 129",
    "latitude": 40.44255,
    "longitude": -3.6862379
  },
  "9d921ff1": {
    "location_name": "Carabanchel",
    "address": "Calle del Petirrojo, 34",
    "latitude": 40.3907951,
    "longitude": -3.7462663
  },
  "4869348f": {
    "location_name": "Teatro Serrano",
    "address": "de Serrano, 104",
    "latitude": 40.4342799,
    "longitude": -3.6862284
  },
  "12f732ab": {
    "location_name": "Artespacio Plot Point",
    "address": "de Ercilla, 29",
    "latitude": 40.401977082034,
    "longitude": -3.702038526535
  },
  "8ca210f1": {
    "location_name": "Museo Nacional de Artes Decorativas",
    "address": "de Montalbán, 12",
    "latitude": 40.4177983,
    "longitude": -3.6897806
  },
  "0706fc4c": {
    "location_name": "Iglesia de San Antonio de los Alemanes",
    "address": "de la Puebla , 22",
    "latitude": 40.422464774016,
    "longitude": -3.703680038452
  },
  "94a66118": {
    "location_name": "Auditorio Nacional de Música",
    "address": "del Príncipe de Vergara, 146",
    "latitude": 40.4459662,
    "longitude": -3.6776947
  },
  "41cfd2ba": {
    "location_name": "Conde Duque",
    "address": "del Conde Duque, 11",
    "latitude": 40.427887,
    "longitude": -3.710802
  },
  "d5e60251": {
    "location_name": "Teatro Alcázar",
    "address": "de Alcalá, 20",
    "latitude": 40.4177853,
    "longitude": -3.6990893
  },
  "d4736963": {
    "location_name": "Teatro Eslava",
    "address": "del Arenal, 11",
    "latitude": 40.4171056,
    "longitude": -3.7065076
  },
  "3a82f95a": {
    "location_name": "Jardín Banca March",
    "address": "de Castelló, 75",
    "latitude": 40.4305839,
    "longitude": -3.6814985
  },
  "db7a4d60": {
    "location_name": "Bululú 2120",
    "address": "de Canarias, 16",
    "latitude": 40.4019628,
    "longitude": -3.6964991
  },
  "86b6d704": {
    "location_name": "Museo Cerralbo",
    "address": "de Ventura Rodríguez, 17",
    "latitude": 40.4237979,
    "longitude": -3.7144623
  },
  "868a1c03": {
    "location_name": "Espacio Fundación Telefónica",
    "address": "de Fuencarral, 3",
    "latitude": 40.4204426,
    "longitude": -3.7017177
  },
  "f019fdda": {
    "location_name": "Capitol Gran Vía"
  },
  "bebd45c9": {
    "location_name": "Museo Nacional de Ciencias Naturales",
    "address": "de José Gutierrez Abascal, 2",
    "latitude": 40.4416762,
    "longitude": -3.6901373
  },
  "c05dd0a1": {
    "location_name": "Teatro Calderón",
    "address": "de Atocha, 18",
    "latitude": 40.414043355837,
    "longitude": -3.703497648239
  },
  "6666116c": {
    "location_name": "Casa Árabe",
    "address": "de Alcalá, 62",
    "latitude": 40.4216694,
    "longitude": -3.6818155
  },
  "4abde3ad": {
    "location_name": "Fever Hub Madrid",
    "address": "Raimundo Fernández Villaverde, 57",
    "latitude": 40.4470496,
    "longitude": -3.696194
  },
  "eec48cba": {
    "location_name": "Espacio Delicias",
    "address": "de las Delicias, 61",
    "latitude": 40.4003158,
    "longitude": -3.6936386
  },
  "79b10898": {
    "location_name": "OXO. Museo del Videojuego en Madrid",
    "address": "del Postigo de San Martín, 8",
    "latitude": 40.419292,
    "longitude": -3.7058932
  },
  "e2ed1fa1": {
    "location_name": "Instituto Cervantes",
    "address": "de Alcalá, 49",
    "latitude": 40.419341,
    "longitude": -3.695351
  },
  "24774762": {
    "location_name": "Instituto Cultural de México en España",
    "address": "de San Jerónimo, 46",
    "latitude": 40.4158953,
    "longitude": -3.6971466
  },
  "7b154a93": {
    "location_name": "Residencia de Estudiantes",
    "address": "del Pinar, 21-23",
    "latitude": 40.4406757,
    "longitude": -3.6879973
  },
  "59c4658b": {
    "location_name": "Depósito elevado de Plaza de Castilla",
    "address": "de Castilla, 9",
    "latitude": 40.4655316,
    "longitude": -3.6887836
  },
  "d700ab39": {
    "location_name": "La Casa de la Arquitectura (Arquería de Nuevos Ministerios)",
    "address": "de la Castellana, 67",
    "latitude": 40.444865,
    "longitude": -3.6926507
  },
  "8608aaad": {
    "location_name": "Café Central Ateneo",
    "address": "de Santa Catalina, 10",
    "latitude": 40.4154432,
    "longitude": -3.6979046
  },
  "b7019de4": {
    "location_name": "Teatro de La Abadía",
    "address": "de Fernández de los Ríos, 42",
    "latitude": 40.435303161468,
    "longitude": -3.70943069458
  },
  "9c507af8": {
    "location_name": "Museo del Romanticismo",
    "address": "de San Mateo, 13",
    "latitude": 40.4259204,
    "longitude": -3.6987727
  },
  "0f65d248": {
    "location_name": "Museo del Traje",
    "address": "de Juan de Herrera, 2",
    "latitude": 40.4400973,
    "longitude": -3.7289688
  },
  "c6461f0c": {
    "location_name": "Teatro Sofía",
    "address": "Gran Via, 70",
    "latitude": 40.4228955,
    "longitude": -3.7094414
  },
  "82e42bdc": {
    "location_name": "Jardín Botánico de la Universidad Complutense (Real Jardín Botánico Alfonso XIII)",
    "address": "Complutense, s/n",
    "latitude": 40.447298141613,
    "longitude": -3.726317882538
  },
  "faef8eee": {
    "location_name": "Galería Elvira González",
    "address": "de los Hermanos Alvárez Quintero , 1",
    "latitude": 40.4272699,
    "longitude": -3.6976072
  },
  "e9af25a5": {
    "location_name": "Museo ICO",
    "address": "de Zorrilla, 3",
    "latitude": 40.416864,
    "longitude": -3.6977864
  },
  "5e098d10": {
    "location_name": "Nave 0 (Matadero)",
    "address": "de Legazpi , 8",
    "latitude": 40.3910873,
    "longitude": -3.6981435
  },
  "5f3f83ad": {
    "location_name": "Círculo de Bellas Artes",
    "address": "de Alcalá, 42",
    "latitude": 40.4181017,
    "longitude": -3.6964787
  },
  "94c2d0f2": {
    "location_name": "Fundación MAPFRE. Sala Recoletos",
    "address": "de Recoletos, 23",
    "latitude": 40.4227242,
    "longitude": -3.6923964
  },
  "5673f627": {
    "location_name": "Museo Lázaro Galdiano",
    "address": "de Serrano, 122",
    "latitude": 40.4369701,
    "longitude": -3.6857313
  },
  "0418b21d": {
    "location_name": "Centro Cultural Casa del Reloj",
    "address": "de la Chopera, 6",
    "latitude": 40.394071,
    "longitude": -3.699455
  },
  "9311565f": {
    "location_name": "Casa de América",
    "address": "de Cibeles, 2",
    "latitude": 40.4203039,
    "longitude": -3.6916235
  },
  "04ac1adc": {
    "location_name": "Centro Cultural Coreano en España",
    "address": "de la Castellana, 15",
    "latitude": 40.4281099,
    "longitude": -3.6901699
  },
  "d16522a8": {
    "location_name": "Centre Cultural - Librería Blanquerna",
    "address": "de Orense, 62",
    "latitude": 40.4603195,
    "longitude": -3.6938521
  },
  "438080e7": {
    "location_name": "Fundación Casa de México en España",
    "address": "de Alberto Aguilera, 20",
    "latitude": 40.4301378,
    "longitude": -3.7092035
  },
  "4d6147eb": {
    "location_name": "Biblioteca Histórica UCM Marqués de Valdecilla",
    "address": "del Noviciado, 3",
    "latitude": 40.4254782,
    "longitude": -3.7078981
  },
  "dc35bc1f": {
    "location_name": "Real Academia de Bellas Artes de San Fernando",
    "address": "de Alcalá, 13",
    "latitude": 40.4179384,
    "longitude": -3.7007453
  },
  "0d7b035c": {
    "location_name": "Teatro Rialto",
    "address": "Gran Vía, 54",
    "latitude": 40.4213644,
    "longitude": -3.707247
  },
  "07d16a57": {
    "location_name": "AZarte",
    "address": "de San Marcos, 19",
    "latitude": 40.421481,
    "longitude": -3.698307
  },
  "d3b83b90": {
    "location_name": "Centro Sefarad-Israel",
    "address": "Mayor, 69",
    "latitude": 40.4153333,
    "longitude": -3.7111881
  },
  "a6035e83": {
    "location_name": "Sala de Arte Joven de la Comunidad de Madrid",
    "address": "de América, 13",
    "latitude": 40.4385164,
    "longitude": -3.6764022
  },
  "22fd9956": {
    "location_name": "UMusic Hotel Teatro Albéniz",
    "address": "de la Paz, 11",
    "latitude": 40.4153478,
    "longitude": -3.7041116
  },
  "d46f99a6": {
    "location_name": "Plaza de Pedro Zerolo, Plaza del Rey, Puerta del Sol y Plaza de España",
    "address": "Plaza de Pedro Zerolo, Plaza del Rey, Puerta del Sol, Plaza de España.",
    "latitude": 40.421044233242,
    "longitude": -3.699442454971
  },
  "2c0dd596": {
    "location_name": "Parque de la Bombilla",
    "address": "de Valladolid, 4",
    "latitude": 40.426695505753,
    "longitude": -3.726253509522
  },
  "9d984b5f": {
    "location_name": "Casa Museo Lope de Vega",
    "address": "de Cervantes, 11",
    "latitude": 40.4144227,
    "longitude": -3.697431
  },
  "b74eada6": {
    "location_name": "Puerta del Sol",
    "address": "Puerta del Sol,",
    "latitude": 40.4167139,
    "longitude": -3.7034836
  },
  "60383778": {
    "location_name": "Teatro La Latina",
    "address": "de la Cebada, 2",
    "latitude": 40.411436,
    "longitude": -3.7087536
  },
  "662ce9f8": {
    "location_name": "Parque de Santander (Parque del Tercer Depósito)",
    "address": "de Filipinas, 11",
    "latitude": 40.4415537,
    "longitude": -3.7065042
  },
  "739a4956": {
    "location_name": "Auditorio Miguel Ríos Rivas Vaciamadrid",
    "address": "Alicia Alonso, s/n",
    "latitude": 40.34,
    "longitude": -3.51
  },
  "2b9a4735": {
    "location_name": "Estadio Riyadh Air Metropolitano",
    "address": "de Luis Aragonés, s/n",
    "latitude": 40.436299422388,
    "longitude": -3.599481582642
  },
  "1f1e0e14": {
    "location_name": "Movistar Arena (WiZink Center)",
    "address": "de Felipe II, s/n",
    "latitude": 40.4238597,
    "longitude": -3.6718421
  },
  "ce6a0c87": {
    "location_name": "Real Jardín Botánico",
    "address": "de Murillo, 2",
    "latitude": 40.411363,
    "longitude": -3.6908507
  },
  "b346de2e": {
    "location_name": "Galería de Cristal (Palacio de Cibeles)",
    "address": "de Montalbán, 1",
    "latitude": 40.4182856,
    "longitude": -3.69169
  },
  "1fc28150": {
    "location_name": "Iberdrola Music",
    "address": "Laguna Dalga",
    "latitude": 40.33002438542,
    "longitude": -3.710401557036
  },
  "871b85d1": {
    "location_name": "Sala Mon Live",
    "address": "de Hilarión Eslava, 36",
    "latitude": 40.4359056,
    "longitude": -3.7164565
  },
  "9d5eb577": {
    "location_name": "La Riviera",
    "address": "Bajo de la Virgen del Puerto, s/n",
    "latitude": 40.4133013,
    "longitude": -3.7219371
  },
  "24d0cdde": {
    "location_name": "C Arte C",
    "address": "de Juan de Herrera, 2",
    "latitude": 40.4400973,
    "longitude": -3.7289688
  },
  "61c10e5d": {
    "location_name": "Varios locales",
    "latitude": 40.4167754,
    "longitude": -3.7037902
  },
  "e7a6dc9e": {
    "location_name": "Sala Alcalá 31 de la Comunidad de Madrid",
    "address": "de Alcalá, 31",
    "latitude": 40.4185177,
    "longitude": -3.6983372
  },
  "3737ef68": {
    "location_name": "Plaza de España",
    "address": "de España, s/n",
    "latitude": 40.423387716953,
    "longitude": -3.712166547775
  },
  "4ab76119": {
    "location_name": "Teatro de la Zarzuela",
    "address": "de Jovellanos, 4",
    "latitude": 40.417129,
    "longitude": -3.6973724
  },
  "e2ffcb7e": {
    "location_name": "Galería Espacio Landaburu",
    "address": "Travesía de la Encomienda, 3",
    "latitude": 40.4110309,
    "longitude": -3.7054037
  },
  "c559b35b": {
    "location_name": "Leica Gallery Madrid",
    "address": "de José Ortega y Gasset, 34",
    "latitude": 40.4299874,
    "longitude": -3.6808178
  },
  "e80eae3e": {
    "location_name": "Real Coliseo de Carlos III",
    "address": "Floridablanca, 20",
    "latitude": 40.5910509,
    "longitude": -4.1468961
  },
  "e097f20e": {
    "location_name": "Estadio Vallehermoso",
    "address": "de Melquíades Álvarez, 19",
    "latitude": 40.444795769821,
    "longitude": -3.708587896684
  },
  "ecdf816e": {
    "location_name": "Cementerio de La Almudena",
    "address": "de Daroca, 90",
    "latitude": 40.4247569,
    "longitude": -3.6465092
  },
  "b1ac68ff": {
    "location_name": "Lab theClub",
    "address": "de Agustín de Foxa, s/n",
    "latitude": 40.4760991,
    "longitude": -3.6820196
  },
  "50107e1c": {
    "location_name": "Teatro Real",
    "address": "de Isabel II, s/n",
    "latitude": 40.418299121798,
    "longitude": -3.710589408875
  },
  "3b56e983": {
    "location_name": "Plaza de toros Monumental de Las Ventas",
    "address": "de Alcalá , 237",
    "latitude": 40.4322742,
    "longitude": -3.6632745
  },
  "ac61e979": {
    "location_name": "Fundación Olivar de Castillejo",
    "address": "Menéndez Pidal, 3",
    "latitude": 40.4590724,
    "longitude": -3.6829776
  },
  "62680f0b": {
    "location_name": "Fundación Ortega - Marañón",
    "address": "de Fortuny, 53",
    "latitude": 40.4348973,
    "longitude": -3.6906978
  },
  "272e99f1": {
    "location_name": "Palacio de Velázquez",
    "address": "de Venezuela, 2",
    "latitude": 40.4151851,
    "longitude": -3.6819343
  },
  "6f279bd2": {
    "location_name": "Mercado de San Fernando",
    "address": "de Embajadores, 41",
    "latitude": 40.4077339,
    "longitude": -3.7036534
  },
  "50b7e303": {
    "location_name": "Biblioteca Regional de la Comunidad de Madrid Joaquín Leguina",
    "address": "de Ramírez de Prado, 3",
    "latitude": 40.3997348,
    "longitude": -3.6906652
  },
  "1fbee8ae": {
    "location_name": "Centro Cultural de China en Madrid",
    "address": "del General Pardiñas, 73",
    "latitude": 40.4340721,
    "longitude": -3.6783231
  },
  "98f49d45": {
    "location_name": "Moby Dick",
    "address": "de Brasil, 5",
    "latitude": 40.4543434,
    "longitude": -3.6940523
  },
  "9a5be362": {
    "location_name": "Palacio Vistalegre Arena",
    "address": "de Utebo , 1",
    "latitude": 40.3862023,
    "longitude": -3.7379421
  },
  "fc67cb12": {
    "location_name": "Biblioteca Nacional",
    "address": "de Recoletos, 20 - 22",
    "latitude": 40.4238877,
    "longitude": -3.6900305
  },
  "87541a75": {
    "location_name": "Comic Planet",
    "address": "de Alberto de Alcocer, 5",
    "latitude": 40.4586599,
    "longitude": -3.6885557
  },
  "47e9c7c5": {
    "location_name": "Museo Casa de La Moneda",
    "address": "del Doctor Esquerdo, 36",
    "latitude": 40.4226158,
    "longitude": -3.6691645
  },
  "097cd5fb": {
    "location_name": "Teatro Amaya",
    "address": "del General Martínez Campos, 9",
    "latitude": 40.4351546,
    "longitude": -3.6971056
  },
  "f8a954ec": {
    "location_name": "Teatro Tarambana",
    "address": "Dolores Armengot , 31",
    "latitude": 40.3857668,
    "longitude": -3.7432537
  },
  "a39a77f1": {
    "location_name": "Teatro Lagrada",
    "address": "de Ercilla, 20",
    "latitude": 40.4026932,
    "longitude": -3.7029826
  },
  "d593652a": {
    "location_name": "Palacio Neptuno",
    "address": "de Cervantes, 42",
    "latitude": 40.4144686,
    "longitude": -3.6950121
  },
  "35bc59b1": {
    "location_name": "Real Basílica de San Francisco El Grande",
    "address": "de la Gran Vía de San Francisco, 19",
    "latitude": 40.4098258,
    "longitude": -3.7139253
  },
  "57b3a4e9": {
    "location_name": "Varias salas Madrid en Vivo"
  },
  "93c8a15d": {
    "location_name": "Real Jardín Botánico Alfonso XIII",
    "address": "Av. Complutense, s/n, 28040 Madrid"
  },
  "fc319523": {
    "location_name": "Galería Guillermo de Osma",
    "address": "de Claudio Coello, 4, 1º izq.",
    "latitude": 40.4208447,
    "longitude": -3.6870212
  },
  "2c118b55": {
    "location_name": "DT Espacio Escénico",
    "address": "de la Reina, 9",
    "latitude": 40.4205184,
    "longitude": -3.7002514
  }
}