{
  "59b668b3": {
    "location_name": "Varios espacios"
  },
  "e8203728": {
    "location_name": "Museo Misiones Salesianas",
    "address": "Lisboa, 4"
  },
  "0d71ace6": {
    "location_name": "Sala Villanos",
    "address": "de Bernardino Obregón, 18",
    "latitude": 40.404034,
    "longitude": -3.699996
  },
  "3d1689d6": {
    "location_name": "Centro Sefarad-Israel",
    "address": "Mayor, 69",
    "latitude": 40.4153052,
    "longitude": -3.7112096
  },
  "ba6fdac1": {
    "location_name": "Espacio Fundación Telefónica",
    "address": "de Fuencarral, 3",
    "latitude": 40.4204426,
    "longitude": -3.7017177
  },
  "8df15f7b": {
    "location_name": "Centro Cultural Daoíz y Velarde",
    "address": "de Daoíz y Velarde, 4",
    "latitude": 40.4015359,
    "longitude": -3.6773107
  },
  "eec48cba": {
    "location_name": "Espacio Delicias",
    "address": "de las Delicias, 61",
    "latitude": 40.397883697556,
    "longitude": -3.688788414002
  },
  "bb29009c": {
    "location_name": "CentroCentro",
    "address": "de Cibeles, 1",
    "latitude": 40.4191483,
    "longitude": -3.6920903
  },
  "dc35bc1f": {
    "location_name": "Real Academia de Bellas Artes de San Fernando",
    "address": "de Alcalá, 13",
    "latitude": 40.4179384,
    "longitude": -3.7007453
  },
  "0418b21d": {
    "location_name": "Centro Cultural Casa del Reloj",
    "address": "de la Chopera, 6",
    "latitude": 40.394078,
    "longitude": -3.6994614
  },
  "2b4bae9b": {
    "location_name": "Fundación Canal Sala Castellana 214",
    "address": "de la Castellana, 214",
    "latitude": 40.463602,
    "longitude": -3.688925
  },
  "9e24c4ba": {
    "location_name": "Centro de Arte Dos de Mayo (CA2M) / Móstoles",
    "address": "de la Constitución , 23",
    "latitude": 40.324707,
    "longitude": -3.863246
  },
  "0316a58d": {
    "location_name": "B the travel brand Xperience Madrid",
    "address": "de Miguel Ángel, 33",
    "latitude": 40.4378565,
    "longitude": -3.6915244
  },
  "3997d10f": {
    "location_name": "Galería de las Colecciones Reales",
    "address": "de Bailén, 8",
    "latitude": 40.416684880488,
    "longitude": -3.71595441807
  },
  "a1af948d": {
    "location_name": "Teatro Gran Vía",
    "address": "de Gran Vía, 66",
    "latitude": 40.4224128,
    "longitude": -3.7089378
  },
  "17616d68": {
    "location_name": "Teatro Lara - Sala Cándido Lara",
    "address": "Corredera Baja de San Pablo, 15",
    "latitude": 40.4220989,
    "longitude": -3.7044511
  },
  "1e352ee3": {
    "location_name": "COAM",
    "address": "de Hortaleza, 63",
    "latitude": 40.4240359,
    "longitude": -3.698986
  },
  "39528063": {
    "location_name": "Fundación Ramón Menéndez Pidal",
    "address": "Calle de Menéndez Pidal, 5"
  },
  "620aba3b": {
    "location_name": "Matadero Madrid",
    "address": "de Legazpi, 8",
    "latitude": 40.3915817,
    "longitude": -3.6963598
  },
  "a422787f": {
    "location_name": "La Casa de la Arquitectura (Arquería de Nuevos Ministerios)",
    "address": "de la Castellana, 67",
    "latitude": 40.4435818,
    "longitude": -3.6935795
  },
  "c60cef6f": {
    "location_name": "Varios espacios de Madrid",
    "address": "Varios espacios de Madrid"
  },
  "62888fb3": {
    "location_name": "Paseo del Pintor Rosales, 30",
    "address": "Paseo del Pintor Rosales, 30, 28008 Madrid"
  },
  "47e9c7c5": {
    "location_name": "Museo Casa de La Moneda",
    "address": "del Doctor Esquerdo, 36",
    "latitude": 40.4226001,
    "longitude": -3.6691398
  },
  "31e63917": {
    "location_name": "La Casa Encendida",
    "address": "de Valencia, 2",
    "latitude": 40.4060622,
    "longitude": -3.6999668
  },
  "fc67cb12": {
    "location_name": "Biblioteca Nacional",
    "address": "de Recoletos, 20 - 22",
    "latitude": 40.4238877,
    "longitude": -3.6900305
  },
  "86b6d704": {
    "location_name": "Museo Cerralbo",
    "address": "de Ventura Rodríguez, 17",
    "latitude": 40.423767508377,
    "longitude": -3.714542984963
  },
  "40bf545b": {
    "location_name": "Museo de América",
    "address": "de los Reyes Católicos, 6",
    "latitude": 40.438275,
    "longitude": -3.7219676
  },
  "fd081fab": {
    "location_name": "Museo de Arte Contemporáneo",
    "address": "del Conde Duque, 9",
    "latitude": 40.4269963,
    "longitude": -3.7109397
  },
  "973a6894": {
    "location_name": "Museo de Historia",
    "address": "de Fuencarral, 78",
    "latitude": 40.4257954,
    "longitude": -3.7007992
  },
  "7ed4c244": {
    "location_name": "UMusic Hotel Teatro Albéniz",
    "address": "de la Paz, 11",
    "latitude": 40.4153449,
    "longitude": -3.7041017
  },
  "24d0cdde": {
    "location_name": "C Arte C",
    "address": "de Juan de Herrera, 2",
    "latitude": 40.4400973,
    "longitude": -3.7289688
  },
  "530f05ff": {
    "location_name": "Museo Nacional de Antropología",
    "address": "de Alfonso XII, 68",
    "latitude": 40.4077713,
    "longitude": -3.6890236
  },
  "41cfd2ba": {
    "location_name": "Conde Duque",
    "address": "del Conde Duque, 11",
    "latitude": 40.427887,
    "longitude": -3.710802
  },
  "bebd45c9": {
    "location_name": "Museo Nacional de Ciencias Naturales",
    "address": "de José Gutierrez Abascal, 2",
    "latitude": 40.4416762,
    "longitude": -3.6901373
  },
  "8c5e05a1": {
    "location_name": "Teatro Infanta Isabel",
    "address": "del Barquillo, 24",
    "latitude": 40.42223,
    "longitude": -3.6954356
  },
  "c729b104": {
    "location_name": "Museo Naval",
    "address": "del Prado, 3",
    "latitude": 40.417788607461,
    "longitude": -3.692720532417
  },
  "3c29714c": {
    "location_name": "CaixaForum Madrid",
    "address": "del Prado, 36",
    "latitude": 40.4111951,
    "longitude": -3.693625
  },
  "74039886": {
    "location_name": "Museo Arqueológico Nacional",
    "address": "de Serrano, 13",
    "latitude": 40.4234939,
    "longitude": -3.6889607
  },
  "a20b3909": {
    "location_name": "Museo Reina Sofía",
    "address": "de Santa Isabel, 52",
    "latitude": 40.4079189,
    "longitude": -3.6945566
  },
  "ea3477e5": {
    "location_name": "Palacio de Cristal",
    "address": "de República de Cuba, 4",
    "latitude": 40.4136275,
    "longitude": -3.6820393
  },
  "6a898138": {
    "location_name": "Nuevo Teatro Alcalá",
    "address": "de Jorge Juan, 62",
    "latitude": 40.423395884533,
    "longitude": -3.678274154663
  },
  "c8f77c00": {
    "location_name": "Varios locales de la Comunidad de Madrid"
  },
  "1fef966e": {
    "location_name": "Teatro Valle-Inclán",
    "address": "de Ana Diosdado, s/n",
    "latitude": 40.4083829,
    "longitude": -3.7006353
  },
  "0d7b035c": {
    "location_name": "Teatro Rialto",
    "address": "Gran Vía, 54",
    "latitude": 40.421345790817,
    "longitude": -3.707231283188
  },
  "e9af25a5": {
    "location_name": "Museo ICO",
    "address": "de Zorrilla, 3",
    "latitude": 40.416864,
    "longitude": -3.6977864
  },
  "04ba1f3c": {
    "location_name": "Casa Árabe",
    "address": "de Alcalá, 62",
    "latitude": 40.4216694,
    "longitude": -3.6818155
  },
  "4419484d": {
    "location_name": "Biblioteca Histórica UCM Marqués de Valdecilla",
    "address": "del Noviciado, 3",
    "latitude": 40.4254782,
    "longitude": -3.7078981
  },
  "64c433c7": {
    "location_name": "Círculo de Bellas Artes",
    "address": "de Alcalá, 42",
    "latitude": 40.4181017,
    "longitude": -3.6964787
  },
  "f749255f": {
    "location_name": "Fernán Gómez Centro Cultural de la Villa",
    "address": "de Colón , 4",
    "latitude": 40.424637345173,
    "longitude": -3.689861297607
  },
  "1cf7e237": {
    "location_name": "Teatro María Guerrero",
    "address": "de Tamayo y Baus, 4",
    "latitude": 40.4228731,
    "longitude": -3.6927134
  },
  "84f672c5": {
    "location_name": "Brach Madrid",
    "address": "Gran Vía, 20",
    "latitude": 40.4197037,
    "longitude": -3.6990886
  },
  "a8533229": {
    "location_name": "Instituto Cultural de México en España",
    "address": "de San Jerónimo, 46",
    "latitude": 40.416045,
    "longitude": -3.6973904
  },
  "32368ec0": {
    "location_name": "Galería de Arte Javier Aranburu - Flashara",
    "address": "Guzmán el Bueno, 63"
  },
  "4abde3ad": {
    "location_name": "Fever Hub Madrid",
    "address": "Raimundo Fernández Villaverde, 57"
  },
  "0706fc4c": {
    "location_name": "Iglesia de San Antonio de los Alemanes",
    "address": "de la Puebla , 22",
    "latitude": 40.4224508,
    "longitude": -3.7036394
  },
  "a69a9dde": {
    "location_name": "Nave 0 (Matadero)",
    "address": "de Legazpi , 8",
    "latitude": 40.3910873,
    "longitude": -3.6981435
  },
  "a39f00f6": {
    "location_name": "Palacio de Liria",
    "address": "de la Princesa, 20",
    "latitude": 40.427732729479,
    "longitude": -3.712424039841
  },
  "296a3885": {
    "location_name": "AC Recoletos",
    "address": "Recoletos, 18",
    "latitude": 40.4213839,
    "longitude": -3.6895429
  },
  "e60f1fa6": {
    "location_name": "Fundación Casa de México en España",
    "address": "de Alberto Aguilera, 20",
    "latitude": 40.4301378,
    "longitude": -3.7092035
  },
  "e0c3a08b": {
    "location_name": "Imprenta Municipal-Artes del Libro",
    "address": "de Concepción Jerónima, 15",
    "latitude": 40.41362,
    "longitude": -3.705555
  },
  "1f1e5d44": {
    "location_name": "Museo de San Isidro. Los Orígenes de Madrid",
    "address": "de San Andrés, 2",
    "latitude": 40.412148187254,
    "longitude": -3.711002469063
  },
  "abd05f2e": {
    "location_name": "Gran Teatro Pavón",
    "address": "de Embajadores, 9",
    "latitude": 40.4099808,
    "longitude": -3.706131
  },
  "9549e3a6": {
    "location_name": "Fundación María Cristina Masaveu Peterson",
    "address": "de Alcalá Galiano, 6",
    "latitude": 40.426665,
    "longitude": -3.6914466
  },
  "e9c8b9e8": {
    "location_name": "Nomad Museo Inmersivo",
    "address": "Gran Vía, 78",
    "latitude": 40.4235445,
    "longitude": -3.7096594
  },
  "7aa4af03": {
    "location_name": "Teatro de la Comedia",
    "address": "del Príncipe, 14",
    "latitude": 40.4156207,
    "longitude": -3.70072
  },
  "4e000900": {
    "location_name": "Centro Cultural Coreano en España",
    "address": "de la Castellana, 15",
    "latitude": 40.4281099,
    "longitude": -3.6901699
  },
  "7a70b331": {
    "location_name": "Hipódromo de la Zarzuela",
    "address": "Padre Huidobro , s/n",
    "latitude": 40.467976085526,
    "longitude": -3.7562084198
  },
  "0e7756d3": {
    "location_name": "Museo del Ferrocarril",
    "address": "de las Delicias, 61",
    "latitude": 40.398749783694,
    "longitude": -3.691465258598
  },
  "50107e1c": {
    "location_name": "Teatro Real",
    "address": "de Isabel II, s/n",
    "latitude": 40.418299121798,
    "longitude": -3.710589408875
  },
  "5989b7b0": {
    "location_name": "Museo ABC",
    "address": "de Amaniel, 29",
    "latitude": 40.4281043,
    "longitude": -3.7097008
  },
  "f71df64e": {
    "location_name": "Real Jardín Botánico",
    "address": "de Murillo, 2",
    "latitude": 40.4122193,
    "longitude": -3.6919986
  },
  "2d6a6a9b": {
    "location_name": "Fundación Ortega - Marañón",
    "address": "de Fortuny, 53",
    "latitude": 40.4348973,
    "longitude": -3.6906978
  },
  "9b878d58": {
    "location_name": "Sala Alcalá 31 de la Comunidad de Madrid",
    "address": "de Alcalá, 31",
    "latitude": 40.418472695791,
    "longitude": -3.698229789734
  },
  "7b154a93": {
    "location_name": "Residencia de Estudiantes",
    "address": "del Pinar, 21-23",
    "latitude": 40.4406577,
    "longitude": -3.6880526
  },
  "2c103545": {
    "location_name": "Teatro Español",
    "address": "del Príncipe, 25",
    "latitude": 40.414945992798,
    "longitude": -3.700187802315
  },
  "a6035e83": {
    "location_name": "Sala de Arte Joven de la Comunidad de Madrid",
    "address": "de América, 13",
    "latitude": 40.438610364244,
    "longitude": -3.676316142082
  },
  "95146abe": {
    "location_name": "Sala de Exposiciones del Banco de España",
    "address": "de Alcalá, 48",
    "latitude": 40.418625848941,
    "longitude": -3.694410324097
  },
  "bc4d3d19": {
    "location_name": "Pequeño Teatro Gran Vía",
    "address": "Gran Vía, 66",
    "latitude": 40.422430061313,
    "longitude": -3.708958625794
  },
  "8ca210f1": {
    "location_name": "Museo Nacional de Artes Decorativas",
    "address": "de Montalbán, 12",
    "latitude": 40.4179831,
    "longitude": -3.6895545
  },
  "e0cf7b27": {
    "location_name": "Centro Cultural Clara del Rey - Museo ABC",
    "address": "de Amaniel, 29 - 31",
    "latitude": 40.4281043,
    "longitude": -3.7097008
  },
  "0a572068": {
    "location_name": "Auditorio y Sala de Exposiciones Paco de Lucía",
    "address": "de Las Aguilas, 2",
    "latitude": 40.3850545,
    "longitude": -3.7642101
  },
  "d7359ee0": {
    "location_name": "Fundación MAPFRE. Sala Recoletos",
    "address": "de Recoletos, 23",
    "latitude": 40.4227242,
    "longitude": -3.6923964
  },
  "da578583": {
    "location_name": "Casa del Lector (Matadero)",
    "address": "de la Chopera, 14",
    "latitude": 40.3923033,
    "longitude": -3.69743
  },
  "54913fe0": {
    "location_name": "Museo del Prado",
    "address": "del Prado, s/n",
    "latitude": 40.41381,
    "longitude": -3.692524
  },
  "a68f2f4d": {
    "location_name": "Montaña de los Gatos",
    "address": "de Fernán Núñez, 30",
    "latitude": 40.4211182,
    "longitude": -3.6805514
  },
  "2f17adeb": {
    "location_name": "Casa de América",
    "address": "de Cibeles, 2",
    "latitude": 40.4203039,
    "longitude": -3.6916235
  },
  "5b0ad2a4": {
    "location_name": "Real Academia de Medicina",
    "address": "de Arrieta, 12",
    "latitude": 40.4193745,
    "longitude": -3.7107696
  },
  "9c507af8": {
    "location_name": "Museo del Romanticismo",
    "address": "de San Mateo, 13",
    "latitude": 40.4259179,
    "longitude": -3.6987722
  },
  "65f0f805": {
    "location_name": "SOLO CSV",
    "address": "de San Vicente, 36",
    "latitude": 40.4204973,
    "longitude": -3.717292
  },
  "2cbd1ab4": {
    "location_name": "Sala Canal de Isabel II de la Comunidad de Madrid",
    "address": "de Santa Engracia, 125",
    "latitude": 40.4392262,
    "longitude": -3.7008285
  },
  "8f6b0022": {
    "location_name": "Teamlabs",
    "address": "de San Martín, 1",
    "latitude": 40.4115781,
    "longitude": -3.7066992
  },
  "bf00a41d": {
    "location_name": "Museo Lázaro Galdiano",
    "address": "de Serrano, 122",
    "latitude": 40.4369701,
    "longitude": -3.6857313
  },
  "8f711d13": {
    "location_name": "Museo Nacional Thyssen-Bornemisza",
    "address": "del Prado, 8",
    "latitude": 40.4160406,
    "longitude": -3.6949254
  },
  "7d641e00": {
    "location_name": "Fundación Juan March",
    "address": "de Castelló, 77",
    "latitude": 40.4312498,
    "longitude": -3.6813881
  },
  "097cd5fb": {
    "location_name": "Teatro Amaya",
    "address": "del General Martínez Campos, 9",
    "latitude": 40.4351546,
    "longitude": -3.6971056
  },
  "22a0d9bd": {
    "location_name": "Jardines del Campo del Moro",
    "address": "Virgen del Puerto, s/n",
    "latitude": 40.419373480398,
    "longitude": -3.721158124784
  },
  "1e8020f3": {
    "location_name": "Teatro Bellas Artes",
    "address": "del Marqués de Casa Riera, 2",
    "latitude": 40.418335878681,
    "longitude": -3.69638979435
  },
  "1c88f612": {
    "location_name": "Teatro Ocaso Coliseum",
    "address": "Gran Vía, 78",
    "latitude": 40.42353,
    "longitude": -3.7096604
  },
  "76109031": {
    "location_name": "Teatro de La Abadía",
    "address": "de Fernández de los Ríos, 42",
    "latitude": 40.435303161468,
    "longitude": -3.70943069458
  },
  "29d119f2": {
    "location_name": "El silo de Hortaleza",
    "address": "del Mar de las Antillas, 8 (Parque Huerta de la Salud)",
    "latitude": 40.4753178,
    "longitude": -3.6465498
  },
  "91adeda4": {
    "location_name": "Teatro de Títeres de El Retiro",
    "address": "de México, 4",
    "latitude": 40.418789211918,
    "longitude": -3.68664264679
  },
  "a86710b7": {
    "location_name": "Filmoteca Española",
    "address": "de la Magdalena, 10",
    "latitude": 40.412287059178,
    "longitude": -3.702210187912
  },
  "e28cdcb5": {
    "location_name": "Teatro Apolo",
    "address": "de Tirso de Molina, 1",
    "latitude": 40.4123371,
    "longitude": -3.7033164
  },
  "298413a7": {
    "location_name": "Fundación Canal. Sala Mateo Inurria",
    "address": "de Mateo Inurria, 2",
    "latitude": 40.4659647,
    "longitude": -3.6880118
  },
  "46526d7e": {
    "location_name": "La Neomudéjar",
    "address": "Antonio Nebrija, s/n",
    "latitude": 40.4041478,
    "longitude": -3.6840492
  },
  "6e65cecf": {
    "location_name": "Teatros Luchana",
    "address": "de Luchana, 38",
    "latitude": 40.4318433,
    "longitude": -3.6981038
  },
  "56f26344": {
    "location_name": "Salón de Baile del Teatro Real",
    "address": "de Isabel II, s/n",
    "latitude": 40.4184102,
    "longitude": -3.7093957
  },
  "7d9d4e27": {
    "location_name": "Gran Teatro CaixaBank Príncipe Pío",
    "address": "de San Vicente, 44",
    "latitude": 40.4209943,
    "longitude": -3.7187873
  },
  "8c8bfaa5": {
    "location_name": "Teatro Alcázar",
    "address": "de Alcalá, 20",
    "latitude": 40.4177853,
    "longitude": -3.6990893
  },
  "9940699e": {
    "location_name": "Teatro Marquina",
    "address": "de Prim, 11",
    "latitude": 40.42196654292,
    "longitude": -3.693729043007
  },
  "60383778": {
    "location_name": "Teatro La Latina",
    "address": "de la Cebada, 2",
    "latitude": 40.411445654305,
    "longitude": -3.708760142326
  },
  "f4267402": {
    "location_name": "Instituto San Isidro",
    "address": "de Toledo, 39",
    "latitude": 40.4127255,
    "longitude": -3.7072867
  },
  "ed301dfc": {
    "location_name": "IFEMA MADRID",
    "address": "del Partenón, 5",
    "latitude": 40.465157240748,
    "longitude": -3.616549993517
  },
  "d7ff3b48": {
    "location_name": "Teatro Calderón",
    "address": "de Atocha, 18",
    "latitude": 40.414043355837,
    "longitude": -3.703497648239
  },
  "f3a2b16d": {
    "location_name": "La Vaguada",
    "address": "de Monforte de Lemos, 36",
    "latitude": 40.479712251929,
    "longitude": -3.707220554352
  },
  "78f8018a": {
    "location_name": "Centro Cultural Puerta de Toledo (Centro)",
    "address": "AVENIDA GRAN VIA DE SAN FRANCISCO 2",
    "district": "Centro",
    "latitude": 40.40741060830642,
    "longitude": -3.7119168856897677
  },
  "eec92048": {
    "location_name": "Cines Callao / Callao City Lights",
    "address": "de Callao, 3 y 4",
    "latitude": 40.4198287,
    "longitude": -3.7059223
  },
  "e5043ec3": {
    "location_name": "Teatro Muñoz Seca",
    "address": "del Carmen, 1",
    "latitude": 40.4184049,
    "longitude": -3.703234
  },
  "4eaff4b1": {
    "location_name": "Teatro Lara - Sala Lola Membrives",
    "address": "Baja de San Pablo, 15",
    "latitude": 40.4220989,
    "longitude": -3.7044511
  },
  "a887fc2c": {
    "location_name": "Capitol Gran Vía",
    "address": "Gran Vía, 41",
    "latitude": 40.4204502,
    "longitude": -3.7066308
  },
  "879fc20a": {
    "location_name": "Teatro Maravillas",
    "address": "de Manuela Malasaña, 6",
    "latitude": 40.428729102562,
    "longitude": -3.703240156174
  },
  "4869348f": {
    "location_name": "Teatro Serrano",
    "address": "de Serrano, 104",
    "latitude": 40.4342799,
    "longitude": -3.6862284
  },
  "0bd4bcd7": {
    "location_name": "Teatro Fígaro",
    "address": "del Doctor Cortezo, 5",
    "latitude": 40.413466,
    "longitude": -3.7036766
  },
  "b57d1aec": {
    "location_name": "Sala Mirador",
    "address": "del Doctor Fourquet , 31",
    "latitude": 40.4070109,
    "longitude": -3.6988966
  },
  "877cdde6": {
    "location_name": "Biblioteca Regional de la Comunidad de Madrid Joaquín Leguina",
    "address": "de Ramírez de Prado, 3",
    "latitude": 40.3997348,
    "longitude": -3.6906652
  },
  "3fd83ca9": {
    "location_name": "Nave 10 Matadero (antes Naves del Español)",
    "address": "de la Chopera, 14",
    "latitude": 40.391820782642,
    "longitude": -3.697409033775
  },
  "3d0b3e9c": {
    "location_name": "Palacio de Santa Bárbara",
    "address": "de Hortaleza, 87",
    "latitude": 40.4263218,
    "longitude": -3.6971378
  },
  "aee0de0c": {
    "location_name": "Abya",
    "address": "de José Ortega y Gasset, 32",
    "latitude": 40.4299625,
    "longitude": -3.681306
  },
  "95a62894": {
    "location_name": "Cineteca Madrid",
    "address": "PLAZA LEGAZPI 8",
    "district": "Arganzuela",
    "latitude": 40.39130985242181,
    "longitude": -3.6958028442054074
  },
  "bff7ba99": {
    "location_name": "Palacio de Fernán Núñez",
    "address": "de Santa Isabel, 44",
    "latitude": 40.409942535922,
    "longitude": -3.697172999382
  },
  "f8afdb46": {
    "location_name": "Teatro Soho Madrid",
    "address": "de España, 6",
    "latitude": 40.4225603,
    "longitude": -3.71184
  },
  "f8a954ec": {
    "location_name": "Teatro Tarambana",
    "address": "Dolores Armengot , 31",
    "latitude": 40.3857668,
    "longitude": -3.7432537
  },
  "12f732ab": {
    "location_name": "Artespacio Plot Point",
    "address": "de Ercilla, 29",
    "latitude": 40.401977082034,
    "longitude": -3.702038526535
  },
  "313506e8": {
    "location_name": "Barrio de las Letras",
    "address": "Santa Ana, s/n",
    "latitude": 40.4147025,
    "longitude": -3.7008389
  },
  "dd26025d": {
    "location_name": "El Pasillo Verde Teatro",
    "address": "de la Esperanza, 23 - 25",
    "latitude": 40.4006906,
    "longitude": -3.7040473
  },
  "b1ac68ff": {
    "location_name": "Lab theClub",
    "address": "de Agustín de Foxa, s/n",
    "latitude": 40.473267231976,
    "longitude": -3.682130905285
  },
  "14115200": {
    "location_name": "Bululú 2120",
    "address": "de Canarias, 16",
    "latitude": 40.4019632,
    "longitude": -3.6964942
  },
  "aaee85c7": {
    "location_name": "Sala Komodia",
    "address": "del General Palanca, 7",
    "latitude": 40.3995802,
    "longitude": -3.6989763
  },
  "9b2ba2ac": {
    "location_name": "La Usina",
    "address": "de Palos de la Frontera, 4",
    "latitude": 40.4025525,
    "longitude": -3.6999978
  },
  "f9c4232a": {
    "location_name": "Teatro del Barrio",
    "address": "de Zurita, 20",
    "latitude": 40.4096362,
    "longitude": -3.6991806
  },
  "bd45b78f": {
    "location_name": "SOLO Independencia",
    "address": "de la Independencia, 5",
    "latitude": 40.4206267,
    "longitude": -3.6882458
  },
  "4ab76119": {
    "location_name": "Teatro de la Zarzuela",
    "address": "de Jovellanos, 4",
    "latitude": 40.417129,
    "longitude": -3.6973724
  },
  "027f0347": {
    "location_name": "Teatros del Canal",
    "address": "de Cea Bermúdez, 1",
    "latitude": 40.4382782,
    "longitude": -3.705182
  },
  "eb8b4a73": {
    "location_name": "Centro Danza Matadero - CDM",
    "address": "de la Chopera, 14",
    "latitude": 40.3923033,
    "longitude": -3.69743
  },
  "71e56dd6": {
    "location_name": "Escuela Técnica Superior de Ingenieros Industriales de la Universidad Politécnica de Madrid",
    "address": "José Gutiérrez Abascal, 2",
    "latitude": 40.4404794,
    "longitude": -3.6899442
  },
  "b814f038": {
    "location_name": "Teatro Sanpol",
    "address": "de San Pol de Mar, 1",
    "latitude": 40.4239561,
    "longitude": -3.7266076
  },
  "b3490977": {
    "location_name": "Movistar Arena (WiZink Center)",
    "address": "de Felipe II, s/n",
    "latitude": 40.4241371,
    "longitude": -3.6749756
  },
  "a5caa848": {
    "location_name": "Centro Cultural Paco Rabal",
    "address": "de Felipe de Diego, 13",
    "latitude": 40.3794678,
    "longitude": -3.6612928
  },
  "2ca44f0a": {
    "location_name": "Auditorio Nacional de Música",
    "address": "del Príncipe de Vergara, 146",
    "latitude": 40.45,
    "longitude": -3.68
  },
  "68079337": {
    "location_name": "Estación de Madrid - Chamartín - Clara Campoamor",
    "address": "Agustín de Foxa, s/n",
    "latitude": 40.471827591892,
    "longitude": -3.682526214322
  },
  "4ff22a87": {
    "location_name": "Ciudad Real Madrid",
    "address": "de Fuerzas Armadas, 402",
    "latitude": 40.4817285,
    "longitude": -3.6112151
  },
  "7b422f52": {
    "location_name": "Basílica Pontificia de San Miguel",
    "address": "de San Justo, 4",
    "latitude": 40.414255742094,
    "longitude": -3.709701597691
  },
  "ab0c9d2e": {
    "location_name": "Arlequín Gran Vía Teatro",
    "address": "de San Bernardo , 5",
    "latitude": 40.4211742662,
    "longitude": -3.70820492506
  },
  "e411800a": {
    "location_name": "Teatro Circo Price",
    "address": "de Atocha, 35",
    "latitude": 40.4059076,
    "longitude": -3.6985795
  },
  "c883cc1c": {
    "location_name": "Escenario Puerta del Ángel",
    "address": "del Embarcadero, Recinto Ferial de la Casa de Campo",
    "latitude": 40.416926850471,
    "longitude": -3.727669715881
  },
  "7aa33334": {
    "location_name": "Espacio Cultural Serrería Belga",
    "address": "CALLE ALAMEDA 15",
    "district": "Centro",
    "latitude": 40.4105673503608,
    "longitude": -3.6937819843413373
  },
  "a0e7ae45": {
    "location_name": "IFEMA Palacio Municipal",
    "address": "de la Capital de España, 7",
    "latitude": 40.4622632,
    "longitude": -3.6163537
  },
  "7e021704": {
    "location_name": "Estadio Municipal de Butarque",
    "address": "Arquitectura, s/n",
    "latitude": 40.3394716,
    "longitude": -3.7627478
  },
  "4b4d8238": {
    "location_name": "Teatro Pradillo",
    "address": "de Pradillo, 12",
    "latitude": 40.4485,
    "longitude": -3.6747226
  },
  "a39a77f1": {
    "location_name": "Teatro Lagrada",
    "address": "de Ercilla, 20",
    "latitude": 40.4026932,
    "longitude": -3.7029826
  },
  "57c2c3c5": {
    "location_name": "DT Espacio Escénico",
    "address": "de la Reina, 9",
    "latitude": 40.4205184,
    "longitude": -3.7002514
  },
  "8e0de8f4": {
    "location_name": "Salto Escénico",
    "address": "de Granada, 10",
    "latitude": 40.4048908,
    "longitude": -3.6799369
  },
  "9a5be362": {
    "location_name": "Palacio Vistalegre Arena",
    "address": "de Utebo , 1",
    "latitude": 40.3862011,
    "longitude": -3.7379452
  },
  "e9776d8f": {
    "location_name": "Campo de Fútbol de Vallecas",
    "address": "del Payaso Fofó, s/n",
    "latitude": 40.3875992,
    "longitude": -3.6602826
  },
  "8a79f191": {
    "location_name": "Movistar Academy Magariños",
    "address": "de Serrano, 129",
    "latitude": 40.44255,
    "longitude": -3.6862379
  },
  "2b9a4735": {
    "location_name": "Estadio Riyadh Air Metropolitano",
    "address": "de Luis Aragonés, s/n",
    "latitude": 40.436299422388,
    "longitude": -3.599481582642
  },
  "a84fbfe3": {
    "location_name": "Réplika Teatro",
    "address": "de la Explanada, 14",
    "latitude": 40.4482718,
    "longitude": -3.7116787
  },
  "4f9ea209": {
    "location_name": "Centro Deportivo Alcalá de Henares",
    "address": "Gustavo Adolfo Bécquer, 64",
    "latitude": 40.5082938,
    "longitude": -3.3608554
  },
  "305c5b59": {
    "location_name": "Escuela Superior de Ingenieros de Minas",
    "address": "Rios Rosas, 21",
    "latitude": 40.4420396,
    "longitude": -3.7005144
  },
  "d0b9c3cf": {
    "location_name": "Coliseum",
    "address": "Teresa de Calcuta, s/n",
    "latitude": 40.325730691238,
    "longitude": -3.714945316315
  },
  "1fbee8ae": {
    "location_name": "Centro Cultural de China en Madrid",
    "address": "del General Pardiñas, 73",
    "latitude": 40.4340721,
    "longitude": -3.6783231
  },
  "9fe624dd": {
    "location_name": "Opera Gallery Madrid",
    "address": "de Serrano, 56",
    "latitude": 40.4285521,
    "longitude": -3.6870781
  },
  "52a7cbaa": {
    "location_name": "Paseo de Recoletos",
    "address": "de Recoletos, s/n",
    "latitude": 40.4197774,
    "longitude": -3.6928866
  },
  "4da9be7c": {
    "location_name": "Autocine Madrid",
    "address": "de la Isla de Java, 2",
    "latitude": 40.4868949,
    "longitude": -3.6779926
  },
  "13acb8c9": {
    "location_name": "Centro Cultural Casa de Vacas",
    "address": "de Colombia, 1",
    "latitude": 40.4190657,
    "longitude": -3.6840531
  },
  "2a793511": {
    "location_name": "Estadio Bernabéu",
    "address": "de Concha Espina, 1",
    "latitude": 40.4524318,
    "longitude": -3.6868084
  },
  "2f2a8411": {
    "location_name": "Centro Cultural Casa de Vacas (Retiro)",
    "address": "PASEO COLOMBIA 1",
    "district": "Retiro",
    "latitude": 40.41906571939961,
    "longitude": -3.684053112760816
  },
  "5add9268": {
    "location_name": "Centro Cultural Antonio Machado (San Blas - Canillejas)",
    "address": "CALLE SAN ROMAN DEL VALLE 8",
    "district": "SanBlas-Canillejas",
    "latitude": 40.420280457570335,
    "longitude": -3.621730741880216
  },
  "607ef06d": {
    "location_name": "Centro Deportivo Municipal La Elipa",
    "address": "CALLE ALCALDE GARRIDO JUARISTI 17",
    "district": "Moratalaz",
    "latitude": 40.41433123768487,
    "longitude": -3.6559498758522833
  },
  "24b2bd61": {
    "location_name": "Centro Cultural el Torito (Moratalaz)",
    "address": "AVENIDA MORATALAZ 130",
    "district": "Moratalaz",
    "latitude": 40.40610655994401,
    "longitude": -3.646521482592748
  },
  "01cf734b": {
    "location_name": "Centro Cultural Nicolás Salmerón (Chamartín)",
    "address": "CALLE MANTUANO 51",
    "district": "Chamartin",
    "latitude": 40.44834125150792,
    "longitude": -3.6761992414203526
  },
  "59f7426c": {
    "location_name": "Espacio de Igualdad Carme Chacón. Hortaleza",
    "address": "CALLE MATAPOZUELOS 2",
    "district": "Hortaleza",
    "latitude": 40.46155641637237,
    "longitude": -3.6501714580414126
  },
  "d2f5de14": {
    "location_name": "Centro Deportivo Municipal Antonio Díaz Miguel",
    "address": "CALLE JOAQUIN DICENTA 1",
    "district": "Tetuan",
    "latitude": 40.471254265861454,
    "longitude": -3.6953256978963807
  },
  "fbf81601": {
    "location_name": "Auditorio y sala de exposiciones Paco de Lucía (Latina)",
    "address": "AVENIDA LAS AGUILAS 2",
    "district": "Latina",
    "latitude": 40.38493929920335,
    "longitude": -3.7641963952601154
  },
  "77b83e41": {
    "location_name": "Parque Santa Eugenia",
    "address": "CALLE Puentelarra 13",
    "district": "VillaDeVallecas",
    "latitude": 40.38131130575197,
    "longitude": -3.608459149580722
  },
  "d2646e73": {
    "location_name": "Centro Cultural Fuente de San Pedro - Valderrivas (Vicálvaro)",
    "address": "CALLE TITANIO 5",
    "district": "Vicalvaro",
    "latitude": 40.40218085880392,
    "longitude": -3.60141148450391
  },
  "94364e2c": {
    "location_name": "Centro Cultural Buenavista (Salamanca)",
    "address": "AVENIDA TOREROS 5",
    "district": "Salamanca",
    "latitude": 40.43200001609297,
    "longitude": -3.670904677285496
  },
  "785c273e": {
    "location_name": "Centro Cultural Meseta de Orcasitas (Usera)",
    "address": "PLAZA ASOCIACION 1",
    "district": "Usera",
    "latitude": 40.36969488211539,
    "longitude": -3.7081179166391824
  },
  "6117b6b3": {
    "location_name": "Espacio de Igualdad Juana Doña. Arganzuela",
    "address": "PASEO CHOPERA 10",
    "district": "Arganzuela",
    "latitude": 40.39307289237465,
    "longitude": -3.699005654074825
  },
  "80b7ee21": {
    "location_name": "Parque Forestal de Valdebebas-Felipe VI y Parque Princesa Leonor",
    "address": "AVENIDA LAS FUERZAS ARMADAS 11",
    "district": "Hortaleza",
    "latitude": 40.48494412599755,
    "longitude": -3.641451621738692
  },
  "4c552c62": {
    "location_name": "Centro de Cultura Contemporánea Conde Duque",
    "address": "CALLE CONDE DUQUE 9",
    "district": "Centro",
    "latitude": 40.42739911262292,
    "longitude": -3.710589286287491
  },
  "18491bad": {
    "location_name": "Centro Sociocultural Maestro Alonso (Salamanca)",
    "address": "CALLE MAESTRO ALONSO 6",
    "district": "Salamanca",
    "latitude": 40.4293927571053,
    "longitude": -3.664846244443566
  },
  "a15e3fff": {
    "location_name": "Centro Cultural Hortaleza",
    "address": "CALLE SANTA VIRGILIA 15",
    "district": "Hortaleza",
    "latitude": 40.47682410775741,
    "longitude": -3.6420497457238
  },
  "31de40c7": {
    "location_name": "Parque Forestal de Entrevías",
    "address": "RONDA DEL SUR 6",
    "district": "PuenteDeVallecas",
    "latitude": 40.36782603611024,
    "longitude": -3.6670181171393064
  },
  "bdab1254": {
    "location_name": "Centro de Información y Educación Ambiental de Casa de Campo",
    "address": "PARQUE CASA DE CAMPO (JUNTO AL EMBARCADERO DEL LAGO)",
    "district": "Moncloa-Aravaca",
    "latitude": 40.41789950036311,
    "longitude": -3.7309390858931137
  },
  "4415beb5": {
    "location_name": "Centro Cultural Lavapiés (Centro)",
    "address": "CALLE OLIVAR 46",
    "district": "Centro",
    "latitude": 40.40967898937472,
    "longitude": -3.7015569791252063
  },
  "ebbead82": {
    "location_name": "Espacio de Igualdad María Telo. Moratalaz",
    "address": "CALLE CAMINO DE LOS VINATEROS 51",
    "district": "Moratalaz",
    "latitude": 40.41087442118042,
    "longitude": -3.6538891267077664
  },
  "2753d9bb": {
    "location_name": "Centro de Educación Ambiental El Retiro",
    "address": "PASEO FERNAN NUÑEZ 2",
    "district": "Retiro",
    "latitude": 40.40943503279114,
    "longitude": -3.6861797800993257
  },
  "50e89114": {
    "location_name": "Centro de Educación Ambiental y Cultural Maris Stella (Usera)",
    "address": "CALLE DOCTOR TOLOSA LATOUR 16",
    "district": "Usera",
    "latitude": 40.374166248648216,
    "longitude": -3.7032220308808577
  },
  "01af9c94": {
    "location_name": "Auditorio al Aire Libre Recinto Ferial Vicálvaro",
    "address": "PASEO POLIDEPORTIVO 142",
    "district": "Vicalvaro",
    "latitude": 40.40612285515847,
    "longitude": -3.5967208460494637
  },
  "804b5e7b": {
    "location_name": "Auditorio Municipal el Espinillo",
    "address": "CALLE TERTULIA 5",
    "district": "Villaverde",
    "latitude": 40.36180966975026,
    "longitude": -3.6927748531714824
  },
  "4a6870d0": {
    "location_name": "Espacio de Igualdad Hermanas Mirabal. Tetuán",
    "address": "CALLE BRAVO MURILLO 133",
    "district": "Tetuan",
    "latitude": 40.45012255255781,
    "longitude": -3.7037047897267947
  },
  "0b80dbd8": {
    "location_name": "Planetario de Madrid",
    "address": "AVENIDA PLANETARIO 16",
    "district": "Arganzuela",
    "latitude": 40.392279999540044,
    "longitude": -3.684956957448299
  },
  "0f68b183": {
    "location_name": "Centro Cultural Casa del Reloj (Arganzuela)",
    "address": "PASEO CHOPERA 6",
    "district": "Arganzuela",
    "latitude": 40.39466755008527,
    "longitude": -3.700396761468562
  },
  "3ed545c0": {
    "location_name": "Centro Cultural Clara del Rey - Museo ABC (Centro)",
    "address": "CALLE AMANIEL 29",
    "district": "Centro",
    "latitude": 40.42741340671151,
    "longitude": -3.7095381101739444
  },
  "d936e564": {
    "location_name": "Centro de Información y Educación Ambiental de Dehesa de la Villa",
    "district": "Moncloa-Aravaca",
    "latitude": 40.45914104116349,
    "longitude": -3.718270563679269
  },
  "222d3f31": {
    "location_name": "Servicio de Actividades Educativas",
    "address": "PASEO CHOPERA 41",
    "district": "Arganzuela",
    "latitude": 40.39415981141737,
    "longitude": -3.6990213657093163
  },
  "9280ea3b": {
    "location_name": "Instalación Deportiva Municipal Rocódromo 'Roc 30'",
    "address": "AVENIDA MANZANARES 108",
    "district": "Carabanchel",
    "latitude": 40.39927267070148,
    "longitude": -3.718824070151145
  },
  "24e10648": {
    "location_name": "Centro Deportivo Municipal Vallehermoso",
    "address": "AVENIDA FILIPINAS 7",
    "district": "Chamberi",
    "latitude": 40.44064843863945,
    "longitude": -3.709053489027435
  },
  "ba168c6a": {
    "location_name": "Espacio de Igualdad Clara Campoamor. Villaverde",
    "address": "CALLE MARIA MARTINEZ OVIOL 12",
    "district": "Villaverde",
    "latitude": 40.35087114162283,
    "longitude": -3.691508909255186
  },
  "d6ce608c": {
    "location_name": "Espacio de Igualdad Lucrecia Pérez. Fuencarral-El Pardo",
    "address": "CALLE MANRESA 1",
    "district": "Fuencarral-ElPardo",
    "latitude": 40.49120609425076,
    "longitude": -3.6916379633219116
  },
  "4e2aa26e": {
    "location_name": "Centro de Cultura Contemporánea CondeDuque",
    "address": "CALLE CONDE DUQUE 9",
    "district": "Centro",
    "latitude": 40.42739911262292,
    "longitude": -3.710589286287491
  },
  "f6706f88": {
    "location_name": "Teatro Municipal de Vallecas",
    "address": "CALLE PASO DE VILLAMANRIQUE 3",
    "district": "VillaDeVallecas",
    "latitude": 40.37762362093048,
    "longitude": -3.6229095774784765
  },
  "094c233c": {
    "location_name": "Centro Cultural - Centro Socio Cultural Villa de Barajas",
    "address": "CALLE BOTICA 7",
    "district": "Barajas",
    "latitude": 40.47324881250678,
    "longitude": -3.5784908616003723
  },
  "e6e54141": {
    "location_name": "Biblioteca Pública Municipal Iván de Vargas (Centro)",
    "address": "CALLE SAN JUSTO 5",
    "district": "Centro",
    "latitude": 40.41410290844665,
    "longitude": -3.7098591212735883
  },
  "e28caeb5": {
    "location_name": "Biblioteca Pública Municipal San Blas (San Blas-Canillejas)",
    "address": "CALLE SAN ROMAN DEL VALLE 8",
    "district": "SanBlas-Canillejas",
    "latitude": 40.420231627534996,
    "longitude": -3.6218113860909074
  },
  "cbd6ee64": {
    "location_name": "Teatro Municipal de Títeres. Parque de El Retiro",
    "address": "AVENIDA MÉXICO 4",
    "district": "Retiro",
    "latitude": 40.41878362561595,
    "longitude": -3.6866519471003647
  },
  "67bc6343": {
    "location_name": "Centro Sociocultural García Lorca (Carabanchel)",
    "address": "CALLE EUGENIA DE MONTIJO 105",
    "district": "Carabanchel",
    "latitude": 40.374208184505,
    "longitude": -3.7510283910283873
  },
  "c54bbf2e": {
    "location_name": "Espacio de Igualdad María de Maeztu. Latina",
    "address": "CALLE MARCELINO CASTILLO 29",
    "district": "Latina",
    "latitude": 40.39420907754556,
    "longitude": -3.744687315765447
  },
  "4cf92373": {
    "location_name": "Jardín del Bulevar de Peña Gorbea",
    "address": "CALLE PEÑA GORBEA 17",
    "district": "PuenteDeVallecas",
    "latitude": 40.3957812018463,
    "longitude": -3.6670346724676173
  },
  "6e4edb19": {
    "location_name": "Biblioteca Pública Municipal José Saramago (Fuencarral-El Pardo)",
    "address": "AVENIDA MONFORTE DE LEMOS 38",
    "district": "Fuencarral-ElPardo",
    "latitude": 40.47860087334554,
    "longitude": -3.7094408342979954
  },
  "cc4bfdf0": {
    "location_name": "Espacio de Igualdad Elena Arnedo Soriano. Retiro",
    "address": "CALLE ARREGUI Y ARUEJ 31",
    "district": "Retiro",
    "latitude": 40.40254931370529,
    "longitude": -3.668092320219012
  },
  "2266a51d": {
    "location_name": "Colegio Público Ciudad de Roma",
    "address": "CALLE JUAN ESPLANDIU 2",
    "district": "Retiro",
    "latitude": 40.41586394930115,
    "longitude": -3.665205626185569
  },
  "74cf0035": {
    "location_name": "Colegio Público Amador de los Ríos",
    "address": "PASEO MARQUES DE ZAFRA 16",
    "district": "Salamanca",
    "latitude": 40.426279629183625,
    "longitude": -3.6665578263940595
  },
  "114b28c7": {
    "location_name": "Colegio Público República de Venezuela",
    "address": "CALLE CERECINOS 8",
    "district": "Usera",
    "latitude": 40.38358402272625,
    "longitude": -3.713626711959121
  },
  "47483ec0": {
    "location_name": "Centro Deportivo Municipal Margot Moles (Vicálvaro)",
    "address": "PASEO POLIDEPORTIVO 3",
    "district": "Vicalvaro",
    "latitude": 40.40914061858403,
    "longitude": -3.603264732850392
  },
  "22531c34": {
    "location_name": "Colegio Público Menéndez Pelayo",
    "address": "CALLE MENDEZ ALVARO 16",
    "district": "Arganzuela",
    "latitude": 40.40557510310644,
    "longitude": -3.691396695437019
  },
  "dc4a4d06": {
    "location_name": "Centro Cultural Julio Cortázar (Moncloa - Aravaca)",
    "address": "CALLE ANTONIO MACHADO 20",
    "district": "Moncloa-Aravaca",
    "latitude": 40.46678417843686,
    "longitude": -3.7195598670929315
  },
  "9cf24606": {
    "location_name": "Centro Sociocultural José de Espronceda (Tetuán)",
    "address": "CALLE ALMANSA 9",
    "district": "Tetuan",
    "latitude": 40.44864332758775,
    "longitude": -3.704513191828797
  },
  "5aebc830": {
    "location_name": "Biblioteca Pública Municipal Ana María Matute (Carabanchel)",
    "address": "CALLE ISAAC ALBENIZ 1",
    "district": "Carabanchel",
    "latitude": 40.39786734087938,
    "longitude": -3.720088245008897
  },
  "06e5ef28": {
    "location_name": "Junta Municipal del Distrito de Usera",
    "address": "AVENIDA RAFAELA YBARRA 41",
    "district": "Usera",
    "latitude": 40.3823867401053,
    "longitude": -3.710861696949648
  },
  "3dc30559": {
    "location_name": "Centro Cultural Orcasur (Usera)",
    "address": "PLAZA PUEBLO 2",
    "district": "Usera",
    "latitude": 40.366772166148415,
    "longitude": -3.70113521931168
  },
  "b3e91ed2": {
    "location_name": "Centro Sociocultural Francisco Fatou (Villa de Vallecas)",
    "address": "CALLE MANUEL VELEZ 10",
    "district": "VillaDeVallecas",
    "latitude": 40.37959032098656,
    "longitude": -3.62310875744905
  },
  "da884c68": {
    "location_name": "Edificio Sociocultural Marta Escudero Díaz-Tejeiro (Villaverde)",
    "address": "CALLE CALCIO 1",
    "district": "Villaverde",
    "latitude": 40.35118703272002,
    "longitude": -3.679345889376551
  },
  "e91935a9": {
    "location_name": "Centro Sociocultural Eduardo Chillida (Moratalaz)",
    "address": "CALLE ARROYO BELINCOSO 9",
    "district": "Moratalaz",
    "latitude": 40.40934483353835,
    "longitude": -3.653036718771371
  },
  "d7ebbb48": {
    "location_name": "Centro Cultural Emilia Pardo Bazán (Salamanca)",
    "address": "CALLE GOYA 1",
    "district": "Salamanca",
    "latitude": 40.42585800515975,
    "longitude": -3.689601594290468
  },
  "384e71f4": {
    "location_name": "Centro Cultural Eduardo Úrculo (Tetuán)",
    "address": "PLAZA DONOSO 5",
    "district": "Tetuan",
    "latitude": 40.46900764611639,
    "longitude": -3.697595691925329
  },
  "578bab51": {
    "location_name": "Biblioteca Pública Municipal Francisco Ibáñez (Chamartín)",
    "address": "CALLE MANTUANO 51",
    "district": "Chamartin",
    "latitude": 40.44810636195716,
    "longitude": -3.6762309620097398
  },
  "6cda1f58": {
    "location_name": "Biblioteca Pública Municipal Eugenio Trías. Casa de Fieras de El Retiro (Retiro)",
    "address": "PASEO FERNÁN NÚÑEZ 24",
    "district": "Retiro",
    "latitude": 40.4166091081099,
    "longitude": -3.6795930368034804
  },
  "04f42220": {
    "location_name": "Biblioteca Pública Municipal María Lejárraga (Hortaleza)",
    "address": "CALLE PRINCESA DE EBOLI 29",
    "district": "Hortaleza",
    "latitude": 40.49041562546542,
    "longitude": -3.655356751728003
  },
  "195199f7": {
    "location_name": "Biblioteca Pública Municipal Mario Vargas Llosa (Centro)",
    "address": "CALLE BARCELO 4",
    "district": "Centro",
    "latitude": 40.426642215368176,
    "longitude": -3.699722994908341
  },
  "a75a031b": {
    "location_name": "Biblioteca Pública Municipal José Hierro (San Blas-Canillejas)",
    "address": "CALLE MARIA SEVILLA DIAGO 15",
    "district": "SanBlas-Canillejas",
    "latitude": 40.433291625973624,
    "longitude": -3.6105662311927453
  },
  "b39fc122": {
    "location_name": "Centro Intergeneracional Río Esmeralda",
    "address": "CALLE RIO ESMERALDA 15",
    "district": "PuenteDeVallecas",
    "latitude": 40.382903228859135,
    "longitude": -3.6520658390631127
  },
  "e3128773": {
    "location_name": "Centro Sociocultural Clara Campoamor (Retiro)",
    "district": "Distrito",
    "latitude": 40.401997713964725,
    "longitude": -3.677655206290768
  },
  "b818bfb8": {
    "location_name": "Biblioteca Pública Municipal Gabriel García Márquez (Usera)",
    "address": "PLAZA PUEBLO 2",
    "district": "Usera",
    "latitude": 40.366768324753416,
    "longitude": -3.701141063083806
  },
  "bdff954e": {
    "location_name": "Biblioteca Pública Municipal Gerardo Diego (Villa de Vallecas)",
    "address": "CALLE MONTE AYA 12",
    "district": "VillaDeVallecas",
    "latitude": 40.37790196240434,
    "longitude": -3.6227296605039516
  },
  "c3c081b3": {
    "location_name": "Biblioteca Pública Municipal Manuel Vázquez Montalbán (Tetuán)",
    "address": "CALLE FRANCOS RODRIGUEZ 67",
    "district": "Tetuan",
    "latitude": 40.45749513485957,
    "longitude": -3.710539712535917
  },
  "12479641": {
    "location_name": "Biblioteca Musical Víctor Espinós",
    "address": "CALLE CONDE DUQUE 9",
    "district": "Centro",
    "latitude": 40.42737760210632,
    "longitude": -3.7106116887809817
  },
  "8420923d": {
    "location_name": "Biblioteca Pública Municipal San Fermín (Usera)",
    "address": "AVENIDA SAN FERMIN 10",
    "district": "Usera",
    "latitude": 40.3711623444796,
    "longitude": -3.692742821990015
  },
  "bffd0900": {
    "location_name": "Espacio de Igualdad Nieves Torres. Chamartín",
    "address": "CALLE ENRIQUE JARDIEL PONCELA 8",
    "district": "Chamartin",
    "latitude": 40.46088981165102,
    "longitude": -3.6700689174427326
  },
  "20d3c8da": {
    "location_name": "Espacio de Igualdad María Zambrano. Chamberí",
    "address": "CALLE ANDRES MELLADO 44",
    "district": "Chamberi",
    "latitude": 40.433958260960964,
    "longitude": -3.7143358486689415
  },
  "8064ec29": {
    "location_name": "Centro Cultural Alfredo Kraus (Fuencarral - El Pardo)",
    "address": "GLORIETA PRADERA DE VAQUERIZAS 9",
    "district": "Fuencarral-ElPardo",
    "latitude": 40.49082275610172,
    "longitude": -3.7216054330053647
  },
  "d9e33b31": {
    "location_name": "Centro Sociocultural Tetuán",
    "address": "CALLE BRAVO MURILLO 251",
    "district": "Tetuan",
    "latitude": 40.45907909580629,
    "longitude": -3.7002532146213043
  },
  "cb467bfc": {
    "location_name": "Centro Sociocultural Bohemios (Villaverde)",
    "address": "CALLE LOS BOHEMIOS 1",
    "district": "Villaverde",
    "latitude": 40.35639654251886,
    "longitude": -3.6940501846610894
  },
  "c35c9218": {
    "location_name": "Centro Cultural Galileo (Chamberí)",
    "address": "CALLE GALILEO 39",
    "district": "Chamberi",
    "latitude": 40.433719454283505,
    "longitude": -3.7104468992841753
  },
  "a2e904a5": {
    "location_name": "Nave de Terneras del Centro Cultural Casa del Reloj",
    "address": "PASEO CHOPERA 10",
    "district": "Arganzuela",
    "latitude": 40.39307289237465,
    "longitude": -3.699005654074825
  },
  "303984c9": {
    "location_name": "Museo de Historia de Madrid",
    "address": "CALLE FUENCARRAL 78",
    "district": "Centro",
    "latitude": 40.42577054821346,
    "longitude": -3.700845660719608
  },
  "54d347e0": {
    "location_name": "Centro Sociocultural Valle Inclán (Fuencarral - El Pardo)",
    "address": "CALLE ARZOBISPO MORCILLO 7",
    "district": "Fuencarral-ElPardo",
    "latitude": 40.48106787416528,
    "longitude": -3.6933504628706095
  },
  "78c22ebd": {
    "location_name": "Aula ambiental La Cabaña del Retiro",
    "address": "PASEO FERNAN NUÑEZ 10",
    "district": "Retiro",
    "latitude": 40.40912277790706,
    "longitude": -3.6793179644920584
  },
  "73b313ed": {
    "location_name": "Jardines de El Buen Retiro",
    "address": "PLAZA INDEPENDENCIA 7",
    "district": "Retiro",
    "latitude": 40.41964087412762,
    "longitude": -3.68793370943788
  },
  "1962092d": {
    "location_name": "Espacio de Igualdad Emilia Pardo Bazán. Ciudad Lineal",
    "address": "AVENIDA BADAJOZ 60",
    "district": "CiudadLineal",
    "latitude": 40.442311100791215,
    "longitude": -3.6534806246311913
  },
  "3955355b": {
    "location_name": "Espacio de Igualdad Berta Cáceres. Usera",
    "address": "CALLE GRAN AVENIDA 14",
    "district": "Usera",
    "latitude": 40.36902428128397,
    "longitude": -3.710212677306876
  },
  "1fbe2a17": {
    "location_name": "Centro Sociocultural Alberto Sánchez (Puente de Vallecas)",
    "address": "CALLE RISCO DE PELOCHE 14",
    "district": "PuenteDeVallecas",
    "latitude": 40.393619022093546,
    "longitude": -3.6556016835101834
  },
  "e5ed7256": {
    "location_name": "Espacio de Igualdad Lucía Sánchez Saornil. San Blas-Canillejas",
    "address": "PLAZA EURIPIDES 1",
    "district": "SanBlas-Canillejas",
    "latitude": 40.449003967549075,
    "longitude": -3.6069161377213526
  },
  "cdc2f892": {
    "location_name": "Centro Cultural Miguel Hernández (Latina)",
    "address": "CALLE SERRADILLA 13",
    "district": "Latina",
    "latitude": 40.378853797128336,
    "longitude": -3.7819616113032115
  },
  "c919deda": {
    "location_name": "Centro Cultural La Vaguada (Fuencarral - El Pardo)",
    "address": "AVENIDA MONFORTE DE LEMOS 38",
    "district": "Fuencarral-ElPardo",
    "latitude": 40.47900813206291,
    "longitude": -3.709138377702435
  },
  "ad115ae8": {
    "location_name": "Centro Cultural Valdebernardo (Vicálvaro)",
    "address": "BULEVAR INDALECIO PRIETO 21",
    "district": "Vicalvaro",
    "latitude": 40.399832138328044,
    "longitude": -3.6212720265227873
  },
  "19d8ef3b": {
    "location_name": "Colegio Público José Calvo Sotelo",
    "address": "AVENIDA CIUDAD DE BARCELONA 83",
    "district": "Retiro",
    "latitude": 40.4008413126834,
    "longitude": -3.6737662524006756
  },
  "a551e59e": {
    "location_name": "Instituto de Educación Secundaria (IES) La Estrella",
    "address": "CALLE ESTRELLA POLAR 10",
    "district": "Retiro",
    "latitude": 40.409450182166985,
    "longitude": -3.6666510401326065
  },
  "cb3c23ad": {
    "location_name": "Espacio de Igualdad Lourdes Hernández. Carabanchel",
    "address": "CALLE COMANDANTE FONTANES 8",
    "district": "Carabanchel",
    "latitude": 40.395326406887946,
    "longitude": -3.721622686264932
  },
  "1f74d2f9": {
    "location_name": "Espacio Sociocultural Marta Escudero Díaz-Tejeiro (Villaverde)",
    "address": "CALLE CALCIO 1",
    "district": "Villaverde",
    "latitude": 40.35118703272002,
    "longitude": -3.679345889376551
  },
  "d2f0a16f": {
    "location_name": "Centro Cultural Benjamín Palencia (Villa de Vallecas)",
    "address": "AVENIDA LA GAVIA 55",
    "district": "VillaDeVallecas",
    "latitude": 40.36691109856854,
    "longitude": -3.6164419466246676
  },
  "fdbb7f80": {
    "location_name": "Centro Cultural Fernando de los Ríos (Latina)",
    "address": "CALLE CAMARENA 10",
    "district": "Latina",
    "latitude": 40.39552931214334,
    "longitude": -3.7562667464373223
  },
  "e42688b9": {
    "location_name": "Imprenta Municipal - Artes del libro",
    "address": "CALLE CONCEPCION JERONIMA 15",
    "district": "Centro",
    "latitude": 40.413896825498995,
    "longitude": -3.7054692169323364
  },
  "7f9397e2": {
    "location_name": "Centro Deportivo Municipal Orcasitas",
    "address": "AVENIDA RAFAELA YBARRA 52",
    "district": "Usera",
    "latitude": 40.37558213858424,
    "longitude": -3.71245854352948
  },
  "1d5c1896": {
    "location_name": "Instalación Deportiva Municipal Básica San Cristóbal de Los Ángeles II",
    "address": "CALLE GODELLA 48",
    "district": "Villaverde",
    "latitude": 40.343480612836665,
    "longitude": -3.6889961753443936
  },
  "932b9e2d": {
    "location_name": "Centro Cultural Fernando Lázaro Carreter (Carabanchel)",
    "address": "CALLE VERDAD 29",
    "district": "Carabanchel",
    "latitude": 40.39164455403764,
    "longitude": -3.717137582860074
  },
  "f893eb68": {
    "location_name": "Centro Sociocultural Cánovas del Castillo (Usera)",
    "address": "CALLE JULIO AGUIRRE 10",
    "district": "Usera",
    "latitude": 40.38627312379031,
    "longitude": -3.700074755609488
  },
  "be557869": {
    "location_name": "Plaza de Daoíz y Velarde",
    "address": "PLAZA DAOIZ Y VELARDE 2",
    "district": "Retiro",
    "latitude": 40.402190438836826,
    "longitude": -3.6772826298329093
  },
  "8d536373": {
    "location_name": "Instalación Deportiva Municipal Básica Colonia Marconi",
    "address": "AVENIDA MARCONI s/n",
    "district": "Villaverde",
    "latitude": 40.33393325295466,
    "longitude": -3.6931253996834856
  },
  "f110b296": {
    "location_name": "Instalación Deportiva Municipal Básica Frontón Zofio (antiguo Zofío II)",
    "address": "CALLE RICARDO BELTRAN Y ROZPIDE 16",
    "district": "Usera",
    "latitude": 40.37992590963709,
    "longitude": -3.7180064038885896
  },
  "1d5179a9": {
    "location_name": "Centro Cultural Buero Vallejo (San Blas - Canillejas)",
    "address": "CALLE BOLTAÑA 27",
    "district": "SanBlas-Canillejas",
    "latitude": 40.44477474902185,
    "longitude": -3.6129105844633775
  },
  "05595e5d": {
    "location_name": "Parroquia San Pedro Advíncula",
    "address": "CALLE SIERRA GORDA 5",
    "district": "VillaDeVallecas",
    "latitude": 40.380255445301586,
    "longitude": -3.620330652764418
  },
  "d40f267f": {
    "location_name": "Matadero Medialab",
    "address": "PASEO CHOPERA 14",
    "district": "Arganzuela",
    "latitude": 40.39245798191536,
    "longitude": -3.6972067902718897
  },
  "650e56e7": {
    "location_name": "Centro Cultural Quinta del Berro - Rafael Altamira (Salamanca)",
    "address": "CALLE ENRIQUE D'ALMONTE 1",
    "district": "Salamanca",
    "latitude": 40.42206923419431,
    "longitude": -3.6629608041639368
  },
  "e391ce25": {
    "location_name": "Centro Cultural Las Californias (Retiro)",
    "address": "CALLE LUIS PEIDRO 2",
    "district": "Retiro",
    "latitude": 40.397021560779024,
    "longitude": -3.6738766514153163
  },
  "f7c15fa2": {
    "location_name": "Centro Cultural Gloria Fuertes (Barajas)",
    "address": "AVENIDA LOGROÑO 179",
    "district": "Barajas",
    "latitude": 40.4606308732073,
    "longitude": -3.59366944150524
  },
  "daf8ed4f": {
    "location_name": "Centro de Ocio y Asesoramiento Juvenil Pipo Velasco (Usera)",
    "address": "CALLE AVENA 5",
    "district": "Usera",
    "latitude": 40.37738097077752,
    "longitude": -3.715659887802671
  },
  "843f1859": {
    "location_name": "Espacio de lectura Parque del Oeste  (Moncloa-Aravaca)",
    "address": "CALLE PROFESOR MARTIN ALMAGRO BASCH 0",
    "district": "Moncloa-Aravaca",
    "latitude": 40.42559,
    "longitude": -3.71955
  },
  "3c3c05be": {
    "location_name": "Centro Sociocultural Oporto (Carabanchel)",
    "address": "AVENIDA OPORTO 78",
    "district": "Carabanchel",
    "latitude": 40.38682740756541,
    "longitude": -3.7277493066262406
  },
  "8684b588": {
    "location_name": "Centro Cultural El Pozo del tío Raimundo (Puente de Vallecas)",
    "address": "AVENIDA GLORIETAS 19",
    "district": "PuenteDeVallecas",
    "latitude": 40.37381624358889,
    "longitude": -3.6599325731670977
  },
  "4975b7d7": {
    "location_name": "Parque Alfredo Kraus",
    "address": "CALLE MAR ADRIATICO 5",
    "district": "Hortaleza",
    "latitude": 40.47098300036034,
    "longitude": -3.6393251567222045
  },
  "35584e1c": {
    "location_name": "Centro Cultural Zazuar (Villa de Vallecas)",
    "address": "CALLE ZAZUAR 4",
    "district": "VillaDeVallecas",
    "latitude": 40.38281866921273,
    "longitude": -3.6061377076487906
  },
  "02a1359b": {
    "location_name": "Biblioteca Pública Municipal Canillejas (San Blas-Canillejas)",
    "address": "CALLE BOLTAÑA 23",
    "district": "SanBlas-Canillejas",
    "latitude": 40.44640229188281,
    "longitude": -3.6117933204271098
  },
  "1cfaf1e7": {
    "location_name": "Biblioteca Pública Municipal Ángel González (Latina)",
    "address": "CALLE GRANJA DE TORREHERMOSA 1",
    "district": "Latina",
    "latitude": 40.397074625115906,
    "longitude": -3.7664885474841556
  },
  "13dc04c6": {
    "location_name": "Centro Cultural Usera 1",
    "address": "AVENIDA RAFAELA YBARRA 49",
    "district": "Usera",
    "latitude": 40.381114597104194,
    "longitude": -3.711149675992656
  },
  "cd48a5b7": {
    "location_name": "Centro Sociocultural Rosario de Acuña (Latina)",
    "address": "CALLE MARIA DEL CARMEN 65",
    "district": "Latina",
    "latitude": 40.40647389284976,
    "longitude": -3.7327010920242043
  },
  "ff52eae6": {
    "location_name": "Centro Sociocultural Almirante Churruca (Latina)",
    "address": "CALLE FUENTE DEL TIRO 72",
    "district": "Latina",
    "latitude": 40.3829835905706,
    "longitude": -3.7800890564106613
  },
  "6bf645f2": {
    "location_name": "Centro Cultural el Madroño (Vicálvaro)",
    "address": "CALLE VILLARDONDIEGO 36",
    "district": "Vicalvaro",
    "latitude": 40.40529229274289,
    "longitude": -3.6086152959929514
  },
  "fa9d95f4": {
    "location_name": "Centro Cultural Mercado de Ibiza (Retiro)",
    "address": "CALLE IBIZA 8",
    "district": "Retiro",
    "latitude": 40.41817872037522,
    "longitude": -3.677376337125393
  },
  "67ae097a": {
    "location_name": "Biblioteca Pública Municipal Gloria Fuertes (Barajas)",
    "address": "AVENIDA LOGROÑO 179",
    "district": "Barajas",
    "latitude": 40.46055947228695,
    "longitude": -3.5937461811785347
  },
  "9a2424f9": {
    "location_name": "Nave 10 Matadero. Creación Dramática Contemporánea",
    "address": "PASEO CHOPERA 14",
    "district": "Arganzuela",
    "latitude": 40.39245798191536,
    "longitude": -3.6972067902718897
  },
  "354e2735": {
    "location_name": "Centro Deportivo Municipal San Cristóbal",
    "address": "PLAZA PINAZO 9",
    "district": "Villaverde",
    "latitude": 40.34267317099495,
    "longitude": -3.6914487380508842
  },
  "de8d5705": {
    "location_name": "Centro Sociocultural Montecarmelo (Fuencarral - El Pardo)",
    "address": "Carretera M-607 Km 13 L-10",
    "district": "Fuencarral-ElPardo",
    "latitude": 40.515712291624084,
    "longitude": -3.6860532895354448
  },
  "cdf5393b": {
    "location_name": "Centro Sociocultural Marconi (Villaverde)",
    "address": "ACCESO COLONIA MARCONI 4",
    "district": "Villaverde",
    "latitude": 40.3347558542528,
    "longitude": -3.7008037217338274
  },
  "2a65104e": {
    "location_name": "Centro Sociocultural Rafael de León (Fuencarral - El Pardo)",
    "address": "CALLE ISLA DE ONS 14",
    "district": "Fuencarral-ElPardo",
    "latitude": 40.48025613358832,
    "longitude": -3.7214686777952974
  },
  "58d38095": {
    "location_name": "Centro Cultural Lope de Vega (Puente de Vallecas)",
    "address": "CALLE CONCEJO DE TEVERGA 1",
    "district": "PuenteDeVallecas",
    "latitude": 40.386296991431074,
    "longitude": -3.671858416387963
  },
  "234551c7": {
    "location_name": "Centro Sociocultural Teresa de Calcuta (Barajas)",
    "address": "PLAZA NAVIO 4",
    "district": "Barajas",
    "latitude": 40.455320740232835,
    "longitude": -3.5876301858469386
  },
  "25ac1ca2": {
    "location_name": "Centro Sociocultural Santa Petronila (Villaverde)",
    "address": "CALLE MARIA MARTINEZ OVIOL 12",
    "district": "Villaverde",
    "latitude": 40.350886994103284,
    "longitude": -3.6914981254409645
  },
  "3277bc83": {
    "location_name": "Centro Sociocultural Valverde (Fuencarral - El Pardo)",
    "address": "PLAZA ISLAS AZORES 1",
    "district": "Fuencarral-ElPardo",
    "latitude": 40.49504564211655,
    "longitude": -3.6880070256093758
  },
  "bc18f3e6": {
    "location_name": "Centro Sociocultural Ágata (Villaverde)",
    "address": "CALLE DOCTOR MARTIN AREVALO 2",
    "district": "Villaverde",
    "latitude": 40.346369432374594,
    "longitude": -3.7085146991266473
  },
  "98131c7a": {
    "location_name": "Centro Cultural Juan Genovés (Moncloa - Aravaca)",
    "address": "TRAVESIA CA&amp;Ntilde;O 5",
    "district": "Moncloa-Aravaca",
    "latitude": 40.45867841791346,
    "longitude": -3.7863499043313373
  },
  "396157d3": {
    "location_name": "Centro Cultural Príncipe de Asturias (Ciudad Lineal)",
    "address": "CALLE HERMANOS GARCIA NOBLEJAS 14",
    "district": "CiudadLineal",
    "latitude": 40.43644651057092,
    "longitude": -3.6372924261150033
  },
  "c1ac1c4c": {
    "location_name": "Instalación Deportiva Municipal Básica Parque El Calero",
    "address": "CALLE VIRGEN DE NURIA 4",
    "district": "CiudadLineal",
    "latitude": 40.43580006579458,
    "longitude": -3.6532953172963816
  },
  "ad6e4f11": {
    "location_name": "Colegio Público Gloria Fuertes",
    "address": "CALLE CENSO 3",
    "district": "Usera",
    "latitude": 40.369311628795366,
    "longitude": -3.7051368370067617
  },
  "cdc2d228": {
    "location_name": "Centro Cultural José Luis Sampedro (Latina)",
    "address": "CALLE CASTROSERNA 4",
    "district": "Latina",
    "latitude": 40.40159394334669,
    "longitude": -3.749110841406562
  },
  "dd3f32b4": {
    "location_name": "Centro Sociocultural San Fermín (Usera)",
    "address": "CALLE ESTAFETA 33",
    "district": "Usera",
    "latitude": 40.371654294908154,
    "longitude": -3.692056897625109
  },
  "49b7587a": {
    "location_name": "Espacio de Igualdad Gloria Fuertes. Vicálvaro",
    "address": "AVENIDA REAL 14",
    "district": "Vicalvaro",
    "latitude": 40.40274516135535,
    "longitude": -3.6072257008596313
  },
  "3ce16d56": {
    "location_name": "Centro Municipal de Mayores Casa del Bulevar",
    "address": "CALLE PE&amp;Ntilde;A GORBEA 22",
    "district": "PuenteDeVallecas",
    "latitude": 40.39520480190822,
    "longitude": -3.6663972915992518
  },
  "bcf3fae2": {
    "location_name": "Faro de la Moncloa",
    "address": "AVENIDA MEMORIA 2",
    "district": "Moncloa-Aravaca",
    "latitude": 40.43727075977316,
    "longitude": -3.721682694006853
  },
  "f21f7383": {
    "location_name": "Centro Cultural San Francisco La Prensa (Carabanchel)",
    "address": "CALLE ALISEDA 4",
    "district": "Carabanchel",
    "latitude": 40.37691447788016,
    "longitude": -3.7416256113806847
  },
  "475352d4": {
    "location_name": "Auditorio Carmen Laforet (Ciudad Lineal)",
    "address": "CALLE JAZMIN 46",
    "district": "CiudadLineal",
    "latitude": 40.47967249471556,
    "longitude": -3.6657243894913565
  },
  "44cdb665": {
    "location_name": "Centro Cultural San Juan Bautista (Ciudad Lineal)",
    "address": "CALLE SAN NEMESIO 4",
    "district": "CiudadLineal",
    "latitude": 40.45224710166,
    "longitude": -3.658029027767765
  },
  "0745535a": {
    "location_name": "Parque Olof Palme",
    "address": "CALLE CERECINOS 1",
    "district": "Usera",
    "latitude": 40.38439900273861,
    "longitude": -3.7129519968429445
  },
  "5157a47e": {
    "location_name": "Centro Cultural Carril del Conde (Hortaleza)",
    "address": "CALLE CARRIL DEL CONDE 57",
    "district": "Hortaleza",
    "latitude": 40.46089499555313,
    "longitude": -3.654366821391548
  },
  "2d9a566c": {
    "location_name": "Mercadillo en la vía pública de la calle Ayerbe (Distrito Barajas)",
    "address": "CALLE AYERBE",
    "district": "Barajas",
    "latitude": 40.468162512600905,
    "longitude": -3.581382058279795
  },
  "8bc8072f": {
    "location_name": "Centro Deportivo Municipal Barajas",
    "address": "AVENIDA LOGROÑO 70",
    "district": "Barajas",
    "latitude": 40.46301382809657,
    "longitude": -3.587693324074623
  },
  "d619eaa8": {
    "location_name": "Biblioteca Pública Municipal David Gistau (Salamanca)",
    "address": "AVENIDA TOREROS 5",
    "district": "Salamanca",
    "latitude": 40.43199309720514,
    "longitude": -3.670929243543714
  },
  "1880bb25": {
    "location_name": "Biblioteca Pública Municipal Benito Pérez Galdós (Centro)",
    "address": "CALLE CONDE DUQUE 9",
    "district": "Centro",
    "latitude": 40.42738668300474,
    "longitude": -3.7105999955473625
  },
  "e6216c39": {
    "location_name": "Espacio de Igualdad María Moliner. Villa de Vallecas",
    "address": "CALLE HONRUBIA 4",
    "district": "VillaDeVallecas",
    "latitude": 40.37128211425518,
    "longitude": -3.6292460351699867
  },
  "76e2a9e1": {
    "location_name": "Biblioteca Pública Municipal La Chata (Carabanchel)",
    "address": "CALLE GENERAL RICARDOS 252",
    "district": "Carabanchel",
    "latitude": 40.38330593504341,
    "longitude": -3.7420633861175796
  },
  "e966d53c": {
    "location_name": "Castillo de la Alameda",
    "address": "CALLE ANTONIO SANCHA 1",
    "district": "Barajas",
    "latitude": 40.45836469361315,
    "longitude": -3.5932763223327178
  },
  "99134239": {
    "location_name": "Colegio Público República de Brasil",
    "address": "AVENIDA FUEROS 34",
    "district": "Usera",
    "latitude": 40.37043939785913,
    "longitude": -3.6899302716018574
  },
  "4d0b6f66": {
    "location_name": "Auditorio Canal de Panamá (Ciudad Lineal)",
    "address": "CALLE PADRE COLOMA 2",
    "district": "CiudadLineal",
    "latitude": 40.44071019620189,
    "longitude": -3.652412289521502
  },
  "58cccc02": {
    "location_name": "Centro Dotacional Integrado Arganzuela Ángel del Río",
    "address": "CALLE CANARIAS 17",
    "district": "Arganzuela",
    "latitude": 40.40242416544921,
    "longitude": -3.6954440062549017
  },
  "0f4fb7d6": {
    "location_name": "Centro Cultural Federico Chueca (Hortaleza)",
    "address": "CALLE BENITA AVILA 23",
    "district": "Hortaleza",
    "latitude": 40.465513265035874,
    "longitude": -3.650585652034587
  },
  "d5e8f92c": {
    "location_name": "Centro Cultural Sara Montiel (Latina)",
    "address": "CARRETERA BOADILLA DEL MONTE 40",
    "district": "Latina",
    "latitude": 40.399764677637116,
    "longitude": -3.775144917950534
  },
  "ae421481": {
    "location_name": "Centro Sociocultural El Greco (Latina)",
    "address": "CALLE EL GRECO 29",
    "district": "Latina",
    "latitude": 40.407316328180464,
    "longitude": -3.747465416906973
  },
  "a98042cc": {
    "location_name": "Biblioteca Pública Municipal Ciudad Lineal (Ciudad Lineal)",
    "address": "CALLE HERMANOS GARCIA NOBLEJAS 14",
    "district": "CiudadLineal",
    "latitude": 40.43644651057092,
    "longitude": -3.6372924261150033
  },
  "29663d70": {
    "location_name": "Instalación Deportiva Municipal Básica Parque Plata y Castañar",
    "address": "PASEO LOS FERROVIARIOS s/n",
    "district": "Villaverde",
    "latitude": 40.34867826813893,
    "longitude": -3.7158020843006376
  },
  "965119da": {
    "location_name": "Espacio de Igualdad Ana Orantes. Barajas",
    "address": "CALLE PLAYA DE SAN JUAN 6",
    "district": "Barajas",
    "latitude": 40.473659104975354,
    "longitude": -3.592395079190456
  },
  "d87268b2": {
    "location_name": "Sala de Exposiciones Maruja Mallo (Retiro)",
    "address": "PLAZA DAOIZ Y VELARDE 2",
    "district": "Retiro",
    "latitude": 40.402190438836826,
    "longitude": -3.6772826298329093
  },
  "3e12c027": {
    "location_name": "Centro Sociocultural San Cristóbal de los Ángeles (Villaverde)",
    "address": "PLAZA PINAZO 9",
    "district": "Villaverde",
    "latitude": 40.34268360439146,
    "longitude": -3.6914402549812873
  },
  "2658b98b": {
    "location_name": "Espacio Cultural Núñez de Balboa, 40 (Salamanca)",
    "address": "CALLE NUÑEZ DE BALBOA 40",
    "district": "Salamanca",
    "latitude": 40.426826159507435,
    "longitude": -3.6825349481985135
  },
  "c573f708": {
    "location_name": "Colegio Público Pradolongo",
    "address": "CALLE PARQUE DE LA PALOMA 9",
    "district": "Usera",
    "latitude": 40.37893066302815,
    "longitude": -3.7158394380500623
  },
  "617096fd": {
    "location_name": "Centro Deportivo Municipal Plata y Castañar",
    "address": "PASEO PLATA Y CASTAÑAR 7",
    "district": "Villaverde",
    "latitude": 40.34998997348078,
    "longitude": -3.7178413073202856
  },
  "7abe081d": {
    "location_name": "Parque de Berlín",
    "address": "AVENIDA RAMON Y CAJAL 2",
    "district": "Chamartin",
    "latitude": 40.45150372849227,
    "longitude": -3.6760645355093797
  },
  "d44709cb": {
    "location_name": "Instalación Deportiva Municipal Básica Los Rosales I",
    "address": "AVENIDA LOS ROSALES 131",
    "district": "Villaverde",
    "latitude": 40.35175390495651,
    "longitude": -3.677834634453844
  },
  "bae04585": {
    "location_name": "Parque Juan Carlos I",
    "address": "GLORIETA S.A.R. DON JUAN DE BORBON Y BATTEMBERG, 5 5",
    "district": "Barajas",
    "latitude": 40.45999848510341,
    "longitude": -3.6148888706303586
  },
  "f3c738b0": {
    "location_name": "Planta de transformación de residuos vegetales de Migas Calientes",
    "address": "AUTOVIA M-30 2200",
    "district": "Moncloa-Aravaca",
    "latitude": 40.445355536117184,
    "longitude": -3.7399742609916697
  },
  "7c4156a5": {
    "location_name": "Biblioteca Pública Municipal Francisco Umbral (Villaverde)",
    "address": "CALLE CALCIO 1",
    "district": "Villaverde",
    "latitude": 40.35118703272002,
    "longitude": -3.679345889376551
  },
  "dae5bf11": {
    "location_name": "Parque Quinta de los Molinos",
    "address": "CALLE ALCALA 527",
    "district": "SanBlas-Canillejas",
    "latitude": 40.44245748722783,
    "longitude": -3.6217095632137375
  },
  "bbfab136": {
    "location_name": "Centro Cultural Ciudad Pegaso (San Blas - Canillejas)",
    "address": "AVENIDA SEPTIMA 11",
    "district": "SanBlas-Canillejas",
    "latitude": 40.44844757572015,
    "longitude": -3.598099871155595
  },
  "aaabd15d": {
    "location_name": "Centro Sociocultural Aula de Aire Libre (Puente de Vallecas)",
    "address": "CALLE SIERRA CARBONERA 74",
    "district": "PuenteDeVallecas",
    "latitude": 40.39010138870244,
    "longitude": -3.6653235716960015
  },
  "5e4b8cb1": {
    "location_name": "Centro Sociocultural Juvenil de Moratalaz",
    "address": "CALLE FUENTE CARRANTONA 10",
    "district": "Moratalaz",
    "latitude": 40.39928542551079,
    "longitude": -3.636600379403484
  },
  "987eb6c2": {
    "location_name": "Biblioteca Pública Municipal Francisco Ayala (Vicálvaro)",
    "address": "BULEVAR INDALECIO PRIETO 21",
    "district": "Vicalvaro",
    "latitude": 40.39982891410407,
    "longitude": -3.621281890570377
  },
  "0628e94f": {
    "location_name": "Biblioteca Pública Municipal Pablo Neruda (Ciudad Lineal)",
    "address": "CALLE ASCAO 4",
    "district": "CiudadLineal",
    "latitude": 40.42941133441142,
    "longitude": -3.6416899839787695
  },
  "166c61c8": {
    "location_name": "Biblioteca Pública Municipal Vallecas (Puente de Vallecas)",
    "address": "CALLE PUERTO DEL MONASTERIO 1",
    "district": "PuenteDeVallecas",
    "latitude": 40.395023959810636,
    "longitude": -3.665554302127492
  },
  "f9636116": {
    "location_name": "Biblioteca Pública Municipal Miguel Delibes (Moratalaz)",
    "address": "CALLE ARROYO BELINCOSO 11",
    "district": "Moratalaz",
    "latitude": 40.40971737692924,
    "longitude": -3.6529822109115133
  },
  "3b1f8185": {
    "location_name": "Centro Sociocultural Blasco Ibáñez (Carabanchel)",
    "address": "CALLE SOLDADO JOSE MARIA REY 44",
    "district": "Carabanchel",
    "latitude": 40.39496102590205,
    "longitude": -3.7327634025142253
  },
  "2b7ea19e": {
    "location_name": "Biblioteca Pública Municipal Pío Baroja (Arganzuela)",
    "address": "CALLE ARGANDA 12",
    "district": "Arganzuela",
    "latitude": 40.40003652682007,
    "longitude": -3.7074488154950584
  },
  "263ec328": {
    "location_name": "Centro de Servicios Sociales Ramón Pérez de Ayala",
    "address": "CALLE MARISMAS 24",
    "district": "PuenteDeVallecas",
    "latitude": 40.401327256909376,
    "longitude": -3.6534549961219147
  },
  "0a0d59b0": {
    "location_name": "Biblioteca Pública Municipal Aluche (Latina)",
    "address": "CALLE CAMARENA 10",
    "district": "Latina",
    "latitude": 40.39597072367931,
    "longitude": -3.7562716852987847
  },
  "0f4e1653": {
    "location_name": "Biblioteca Pública Municipal La Elipa (Ciudad Lineal)",
    "address": "CALLE NUESTRA SE&amp;Ntilde;ORA DEL VILLAR 6",
    "district": "CiudadLineal",
    "latitude": 40.42343352863466,
    "longitude": -3.6518288644365704
  },
  "98f10558": {
    "location_name": "Biblioteca Pública Municipal María Zambrano (Tetuán)",
    "address": "PLAZA DONOSO 5",
    "district": "Tetuan",
    "latitude": 40.46903299144094,
    "longitude": -3.6976620067964996
  },
  "0fd52b7f": {
    "location_name": "Centro Cultural Sanchinarro (Hortaleza)",
    "address": "CALLE PRINCESA DE EBOLI 29",
    "district": "Hortaleza",
    "latitude": 40.49042200599307,
    "longitude": -3.6553467891079854
  },
  "e3f7beb5": {
    "location_name": "Centro Deportivo Municipal Vallehermoso GoFit",
    "address": "AVENIDA FILIPINAS 7",
    "district": "Chamberi",
    "latitude": 40.44064843863945,
    "longitude": -3.709053489027435
  },
  "18ec62a3": {
    "location_name": "Centro Deportivo Municipal Casa de Campo",
    "address": "PASEO PUERTA DEL ANGEL 7",
    "district": "Moncloa-Aravaca",
    "latitude": 40.41612628789201,
    "longitude": -3.733536573641621
  },
  "5920ebfe": {
    "location_name": "Auditorio Municipal Las Trece Rosas",
    "address": "CALLE MONTE DE MONTJUICH 7",
    "district": "VillaDeVallecas",
    "latitude": 40.38024953878224,
    "longitude": -3.6175290483217055
  },
  "9a81a5d0": {
    "location_name": "Parque de la Vaguada",
    "address": "PASEO VAGUADA 13",
    "district": "Fuencarral-ElPardo",
    "latitude": 40.48016602497203,
    "longitude": -3.7112978051427574
  },
  "dbc8993b": {
    "location_name": "Parque Eva Duarte",
    "address": "CALLE DOCTOR GOMEZ ULLA 9",
    "district": "Salamanca",
    "latitude": 40.42985671996897,
    "longitude": -3.668031432543624
  },
  "6ebb77f9": {
    "location_name": "Auditorio Municipal al aire libre Lola Camarena",
    "address": "AVENIDA LA GAVIA 13",
    "district": "VillaDeVallecas",
    "latitude": 40.37447621683769,
    "longitude": -3.6101291550314283
  },
  "6ddab373": {
    "location_name": "Museo de Arte Contemporáneo de Madrid",
    "address": "CALLE CONDE DUQUE 9",
    "district": "Centro",
    "latitude": 40.42739911262292,
    "longitude": -3.710589286287491
  },
  "1c79ae15": {
    "location_name": "Junta Municipal del Distrito de Villa de Vallecas",
    "address": "PASEO FEDERICO GARCIA LORCA 12",
    "district": "VillaDeVallecas",
    "latitude": 40.378906127214485,
    "longitude": -3.6214421258656073
  },
  "ddb7ffc8": {
    "location_name": "Centro Deportivo Municipal Estadio de Atletismo Vallehermoso (Dirección General de Deporte)",
    "address": "CALLE MELQUIADES ALVAREZ 10",
    "district": "Chamberi",
    "latitude": 40.441913031255396,
    "longitude": -3.710700237505622
  },
  "62982101": {
    "location_name": "Instalación Deportiva Municipal Básica Ciudad de Los Ángeles",
    "address": "CALLE ANOETA S/N",
    "district": "Villaverde",
    "latitude": 40.35283994612291,
    "longitude": -3.698205911976654
  },
  "72b12c46": {
    "location_name": "Espacio de Igualdad Dulce Chacón. Villaverde",
    "address": "CALLE TORDEGRILLOS 32",
    "district": "Villaverde",
    "latitude": 40.344107374451525,
    "longitude": -3.7166081132911537
  },
  "09b4b1a1": {
    "location_name": "Biblioteca Pública Municipal Dámaso Alonso (Chamartín)",
    "address": "CALLE MANUEL FERRERO 1",
    "district": "Chamartin",
    "latitude": 40.467453379213175,
    "longitude": -3.6846112774442705
  }
}